facility_id,name,orig_lat,orig_lon,suggested_lat,suggested_lon,dist_m,n_buildings_within_60m,ambiguous,note,google_earth
dc_e1f13594b03c,LCOG Park Place,44.050388,-123.092459,44.050839,-123.092607,51.5,2,True,SUGGESTION - confirm on Google Earth,"https://earth.google.com/web/@44.050388,-123.092459,0a,150d,35y"
dc_d26ec4045e7e,X2nSat Petaluma,38.274793,-122.666564,38.274685,-122.666023,48.8,1,False,SUGGESTION - confirm on Google Earth,"https://earth.google.com/web/@38.274793,-122.666564,0a,150d,35y"
dc_ac081552fe1c,EdgeConneX Portland (EDCPOR01),45.548296,-122.907473,45.54966,-122.907804,153.8,0,False,no building nearby - manual,"https://earth.google.com/web/@45.548296,-122.907473,0a,150d,35y"
dc_90c8dcfdda40,Stack Infrastructure Portland PORO2,45.547403,-122.897906,45.548042,-122.89865,91.7,0,False,no building nearby - manual,"https://earth.google.com/web/@45.547403,-122.897906,0a,150d,35y"
dc_ce363e3ec754,Flexential - Portland/Hillsboro (PDX01),45.54845,-122.891445,45.547603,-122.891975,102.8,0,False,no building nearby - manual,"https://earth.google.com/web/@45.54845,-122.891445,0a,150d,35y"
dc_58ce7a0aa27d,Opus Interactive Hillsboro (HIO01),45.547403,-122.897906,45.548042,-122.89865,91.7,0,False,no building nearby - manual,"https://earth.google.com/web/@45.547403,-122.897906,0a,150d,35y"
dc_03a9959da784,EdgeConneX Hillsboro (EDCPOR02),45.548296,-122.907473,45.54966,-122.907804,153.8,0,False,no building nearby - manual,"https://earth.google.com/web/@45.548296,-122.907473,0a,150d,35y"
dc_bb6acbbe7a18,QTS Hillsboro (HIL1),45.55717,-122.927173,45.557695,-122.92574,126.2,0,False,no building nearby - manual,"https://earth.google.com/web/@45.55717,-122.927173,0a,150d,35y"
dc_23f3922163d5,Corepacket PDX-1,45.521056,-122.67918,45.520621,-122.679537,55.8,1,False,SUGGESTION - confirm on Google Earth,"https://earth.google.com/web/@45.521056,-122.67918,0a,150d,35y"
dc_3933c406bf5d,T5@Portland,45.555659,-122.938245,45.55531,-122.939149,80.5,0,False,no building nearby - manual,"https://earth.google.com/web/@45.555659,-122.938245,0a,150d,35y"
dc_5316b4c0a16e,Flexential - Portland/Hillsboro 3 (PDX03),45.559203,-122.938018,45.560371,-122.937604,133.8,0,False,no building nearby - manual,"https://earth.google.com/web/@45.559203,-122.938018,0a,150d,35y"
dc_2e2a707c7ddf,SMRWORXA - Somerset West Central Office,45.546391,-122.866777,45.546817,-122.866433,54.4,1,False,SUGGESTION - confirm on Google Earth,"https://earth.google.com/web/@45.546391,-122.866777,0a,150d,35y"
dc_0829ecd70434,BVTNORXB - Beaverton Central Office,45.490175,-122.811642,45.489894,-122.811119,51.4,1,False,SUGGESTION - confirm on Google Earth,"https://earth.google.com/web/@45.490175,-122.811642,0a,150d,35y"
dc_9acc15c3d0a9,Digital Realty SFO (200 Paul),37.723407,-122.397923,37.724717,-122.397413,152.2,0,False,no building nearby - manual,"https://earth.google.com/web/@37.723407,-122.397923,0a,150d,35y"
dc_64ef535e80b4,Digital Realty SFO (365 Main),37.788669,-122.390509,37.788062,-122.389729,96.2,0,False,no building nearby - manual,"https://earth.google.com/web/@37.788669,-122.390509,0a,150d,35y"
dc_483139dbc068,The Mission Street Center,37.780351,-122.408954,37.780733,-122.408708,47.6,4,True,SUGGESTION - confirm on Google Earth,"https://earth.google.com/web/@37.780351,-122.408954,0a,150d,35y"
dc_57acf1168596,SFDC1 - 200 Paul Ave,37.723698,-122.398056,37.724717,-122.397413,126.5,0,False,no building nearby - manual,"https://earth.google.com/web/@37.723698,-122.398056,0a,150d,35y"
dc_cd1b4830cc8b,Wave Data Centers San Francisco,37.723698,-122.398056,37.724717,-122.397413,126.5,0,False,no building nearby - manual,"https://earth.google.com/web/@37.723698,-122.398056,0a,150d,35y"
dc_b8be2b6536e3,3HCloud - SFO-1,37.788637,-122.390676,37.789685,-122.391033,120.4,0,False,no building nearby - manual,"https://earth.google.com/web/@37.788637,-122.390676,0a,150d,35y"
dc_5a0289a90452,Evocative Emeryville (EM1),37.847054,-122.293028,37.846064,-122.292677,114.2,0,False,no building nearby - manual,"https://earth.google.com/web/@37.847054,-122.293028,0a,150d,35y"
dc_92b8c227e4e0,GRHMORXB - Gresham Central Office,45.510725,-122.431708,45.510174,-122.431403,65.7,0,False,SUGGESTION - confirm on Google Earth,"https://earth.google.com/web/@45.510725,-122.431708,0a,150d,35y"
dc_a2e7abda96a4,Clackamas ESD Datacenter,45.426814,-122.564112,45.427378,-122.562411,147.1,0,False,no building nearby - manual,"https://earth.google.com/web/@45.426814,-122.564112,0a,150d,35y"
dc_3c06c3237ab7,Colocation Northwest - South Hill,47.154859,-122.279018,47.154405,-122.279227,52.9,1,False,SUGGESTION - confirm on Google Earth,"https://earth.google.com/web/@47.154859,-122.279018,0a,150d,35y"
dc_256bfc3771cd,ScaleMatrix Seattle Data Center US-West 02,47.154858,-122.279018,47.154405,-122.279227,52.8,1,False,SUGGESTION - confirm on Google Earth,"https://earth.google.com/web/@47.154858,-122.279018,0a,150d,35y"
dc_38197c1f3767,"Equinix SE4 - Seattle, Kent",47.420627,-122.247527,47.421525,-122.247393,100.4,0,False,no building nearby - manual,"https://earth.google.com/web/@47.420627,-122.247527,0a,150d,35y"
dc_6986fb479925,BOTHWAXB - Bothell Central Office,47.790938,-122.201932,47.790826,-122.202719,60.2,0,False,SUGGESTION - confirm on Google Earth,"https://earth.google.com/web/@47.790938,-122.201932,0a,150d,35y"
dc_d4fbdd3d160d,CoreSite - San Jose (SV1),37.334147,-121.891649,37.333883,-121.892182,55.6,1,False,SUGGESTION - confirm on Google Earth,"https://earth.google.com/web/@37.334147,-121.891649,0a,150d,35y"
dc_6cd941ab7126,SVTIX San Jose,37.333765,-121.904828,37.333018,-121.90455,86.5,0,False,no building nearby - manual,"https://earth.google.com/web/@37.333765,-121.904828,0a,150d,35y"
dc_95e3409a561c,KDWEB San Jose,37.333885,-121.889302,37.33367,-121.890042,69.8,0,False,SUGGESTION - confirm on Google Earth,"https://earth.google.com/web/@37.333885,-121.889302,0a,150d,35y"
dc_f8e6324f3558,Evocative San Jose (SV7),37.338431,-121.910133,37.337995,-121.910948,86.9,0,False,no building nearby - manual,"https://earth.google.com/web/@37.338431,-121.910133,0a,150d,35y"
dc_4b5aca5e22a3,190 Park Center Plaza San Jose,37.332218,-121.892948,37.332762,-121.893185,63.9,0,False,SUGGESTION - confirm on Google Earth,"https://earth.google.com/web/@37.332218,-121.892948,0a,150d,35y"
dc_59230c71f261,ColoCrossing SJ1,37.33417,-121.891703,37.333883,-121.892182,53.1,1,False,SUGGESTION - confirm on Google Earth,"https://earth.google.com/web/@37.33417,-121.891703,0a,150d,35y"
dc_1c50ce7c72a5,EdgeCore Silicon Valley,37.384692,-121.964919,37.385326,-121.964278,90.4,0,False,no building nearby - manual,"https://earth.google.com/web/@37.384692,-121.964919,0a,150d,35y"
dc_80a8e001435c,CoreSite - Santa Clara (SV9),37.3749,-121.969155,37.374871,-121.969902,66.2,0,False,SUGGESTION - confirm on Google Earth,"https://earth.google.com/web/@37.3749,-121.969155,0a,150d,35y"
dc_6868e3ad619f,Hurricane Electric San Jose 1,37.33417,-121.891703,37.333883,-121.892182,53.1,1,False,SUGGESTION - confirm on Google Earth,"https://earth.google.com/web/@37.33417,-121.891703,0a,150d,35y"
dc_84bb862c11a5,NASA Moffet Field,37.420567,-122.040197,37.420027,-122.040454,64.1,0,False,SUGGESTION - confirm on Google Earth,"https://earth.google.com/web/@37.420567,-122.040197,0a,150d,35y"
dc_bb41f7c6272c,Opus Interactive Silicon Valley (SJC01),37.402211,-121.892822,37.40383,-121.892722,179.9,0,False,no building nearby - manual,"https://earth.google.com/web/@37.402211,-121.892822,0a,150d,35y"
dc_573a60c3563b,T5@SiliconValley,37.510156,-122.001869,37.510112,-122.002802,82.6,0,False,no building nearby - manual,"https://earth.google.com/web/@37.510156,-122.001869,0a,150d,35y"
dc_4cf5e14e6a53,"Equinix SV1/SV5/SV10 - Silicon Valley, San Jose",37.241767,-121.782967,37.242499,-121.784093,128.7,0,False,no building nearby - manual,"https://earth.google.com/web/@37.241767,-121.782967,0a,150d,35y"
dc_9b54779dc33d,Quest Roseville,38.789905,-121.313861,38.79061,-121.313352,89.9,0,False,no building nearby - manual,"https://earth.google.com/web/@38.789905,-121.313861,0a,150d,35y"
dc_475764483f9f,BendTel,44.060152,-121.309509,44.059646,-121.309754,59.5,1,False,SUGGESTION - confirm on Google Earth,"https://earth.google.com/web/@44.060152,-121.309509,0a,150d,35y"
dc_5cc1bdab179a,H5 Data Center,47.2515867,-119.8188048,47.253535,-119.819212,218.8,0,False,no building nearby - manual,"https://earth.google.com/web/@47.2515867,-119.8188048,0a,150d,35y"
dc_824340142f56,Yahoo Data Center,47.2467611,-119.8266159,47.246414,-119.827379,69.5,0,False,SUGGESTION - confirm on Google Earth,"https://earth.google.com/web/@47.2467611,-119.8266159,0a,150d,35y"
dc_6875118f0a7f,H5 Data Centers Quincy 2/3,47.247916,-119.824924,47.24709,-119.825258,95.2,0,False,no building nearby - manual,"https://earth.google.com/web/@47.247916,-119.824924,0a,150d,35y"
dc_713ae9ff9f61,Switch Tahoe Reno,39.515706,-119.471281,39.522202,-119.471662,722.0,0,False,no building nearby - manual,"https://earth.google.com/web/@39.515706,-119.471281,0a,150d,35y"
dc_2a818be79374,EdgeCore Reno 1,39.524415,-119.481812,39.521873,-119.484813,382.4,0,False,no building nearby - manual,"https://earth.google.com/web/@39.524415,-119.481812,0a,150d,35y"
dc_54b3ef0880ca,SD / Comsat Santa Paula Ground Station,34.413094,-119.080887,34.414501,-119.081173,158.3,0,False,no building nearby - manual,"https://earth.google.com/web/@34.413094,-119.080887,0a,150d,35y"
dc_7015a8562d9d,Equinix LA1 - Los Angeles,34.047501,-118.2573,34.046111,-118.25685,159.7,0,False,no building nearby - manual,"https://earth.google.com/web/@34.047501,-118.2573,0a,150d,35y"
dc_8b1409a7c09c,JMA NAC Los Angeles,34.048428,-118.255186,34.046964,-118.254744,167.4,0,False,no building nearby - manual,"https://earth.google.com/web/@34.048428,-118.255186,0a,150d,35y"
dc_1d517d9c43cf,Equinix LA2 - Los Angeles,34.048897,-118.259585,34.048858,-118.259955,34.5,1,False,SUGGESTION - confirm on Google Earth,"https://earth.google.com/web/@34.048897,-118.259585,0a,150d,35y"
dc_4595feafd7e2,Telehouse - Los Angeles,34.048275,-118.256985,34.049377,-118.257141,123.1,0,False,no building nearby - manual,"https://earth.google.com/web/@34.048275,-118.256985,0a,150d,35y"
dc_eac2b2368edf,"Equinix LA3/LA4 - Los Angeles, El Segundo",33.921239,-118.383778,33.92141,-118.382904,83.0,0,False,no building nearby - manual,"https://earth.google.com/web/@33.921239,-118.383778,0a,150d,35y"
dc_da9d1fb0b335,CoreSite - Los Angeles (LA2),34.058096,-118.235357,34.058633,-118.23488,74.0,0,False,SUGGESTION - confirm on Google Earth,"https://earth.google.com/web/@34.058096,-118.235357,0a,150d,35y"
dc_45ec8b20e65d,Digital Realty LAX (600 W 7th),34.047335,-118.25745,34.046111,-118.25685,146.6,0,False,no building nearby - manual,"https://earth.google.com/web/@34.047335,-118.25745,0a,150d,35y"
dc_cc49cc794d73,Telecom Center LA,34.048428,-118.255186,34.046964,-118.254744,167.4,0,False,no building nearby - manual,"https://earth.google.com/web/@34.048428,-118.255186,0a,150d,35y"
dc_474021bfadb0,800 south hope,34.045995,-118.258993,34.045517,-118.259486,69.9,0,False,SUGGESTION - confirm on Google Earth,"https://earth.google.com/web/@34.045995,-118.258993,0a,150d,35y"
dc_0d2326038c4d,QuadraNet DTLA,34.048428,-118.255186,34.046964,-118.254744,167.4,0,False,no building nearby - manual,"https://earth.google.com/web/@34.048428,-118.255186,0a,150d,35y"
dc_381edb33d816,XO 818 West 7th,34.04881,-118.259457,34.048858,-118.259955,46.3,1,False,SUGGESTION - confirm on Google Earth,"https://earth.google.com/web/@34.04881,-118.259457,0a,150d,35y"
dc_9dd5566a71a7,XO 600 West 7th,34.047322,-118.25745,34.046111,-118.25685,145.3,0,False,no building nearby - manual,"https://earth.google.com/web/@34.047322,-118.25745,0a,150d,35y"
dc_6ad7c23dd50f,Level(3) Los Angeles,34.048741,-118.25956,34.048858,-118.259955,38.7,1,False,SUGGESTION - confirm on Google Earth,"https://earth.google.com/web/@34.048741,-118.25956,0a,150d,35y"
dc_f907a6d7f787,Fireline Data Center,34.062122,-118.358612,34.061397,-118.359754,132.6,0,False,no building nearby - manual,"https://earth.google.com/web/@34.062122,-118.358612,0a,150d,35y"
dc_ba58e4ebbda3,Psychz Networks LAX1,34.048684,-118.257528,34.049377,-118.257141,84.7,0,False,no building nearby - manual,"https://earth.google.com/web/@34.048684,-118.257528,0a,150d,35y"
dc_e1b88786f3b0,Digital Realty LAX (2260 E El Segundo),33.915663,-118.384725,33.916843,-118.386122,183.9,0,False,no building nearby - manual,"https://earth.google.com/web/@33.915663,-118.384725,0a,150d,35y"
dc_202a2991c5a5,UnitedLayer Los Angeles,34.048428,-118.255186,34.046964,-118.254744,167.4,0,False,no building nearby - manual,"https://earth.google.com/web/@34.048428,-118.255186,0a,150d,35y"
dc_7569fa9635bc,LADC3 - 600 W 7th St,34.047415,-118.257382,34.046111,-118.25685,152.7,0,False,no building nearby - manual,"https://earth.google.com/web/@34.047415,-118.257382,0a,150d,35y"
dc_ac067fc8caa1,LADC4 - 530 W 6th St,34.048428,-118.255186,34.046964,-118.254744,167.4,0,False,no building nearby - manual,"https://earth.google.com/web/@34.048428,-118.255186,0a,150d,35y"
dc_c7aa0c4fe9d5,LADC5 - 650 S Grand Ave,34.047423,-118.25618,34.046111,-118.25685,158.1,0,False,no building nearby - manual,"https://earth.google.com/web/@34.047423,-118.25618,0a,150d,35y"
dc_7259ff26155b,QuadraNet LAX,33.945894,-118.393553,33.945997,-118.395136,146.8,0,False,no building nearby - manual,"https://earth.google.com/web/@33.945894,-118.393553,0a,150d,35y"
dc_65708f50b372,Burbank Water and Power,34.177856,-118.316743,34.178803,-118.317381,120.4,0,False,no building nearby - manual,"https://earth.google.com/web/@34.177856,-118.316743,0a,150d,35y"
dc_5801df70eb41,Subrigo LAX11,34.047423,-118.25618,34.046111,-118.25685,158.1,0,False,no building nearby - manual,"https://earth.google.com/web/@34.047423,-118.25618,0a,150d,35y"
dc_1419d45e56a4,ColoCrossing LA1,34.048336,-118.255083,34.046964,-118.254744,155.3,0,False,no building nearby - manual,"https://earth.google.com/web/@34.048336,-118.255083,0a,150d,35y"
dc_205214f38282,Centersquare Los Angeles (LAX4),33.924259,-118.320802,33.923891,-118.320369,57.2,1,False,SUGGESTION - confirm on Google Earth,"https://earth.google.com/web/@33.924259,-118.320802,0a,150d,35y"
dc_2546bb57a1b3,TurnKey Internet - CA,34.048336,-118.255083,34.046964,-118.254744,155.3,0,False,no building nearby - manual,"https://earth.google.com/web/@34.048336,-118.255083,0a,150d,35y"
dc_3c91f82abab9,Xfernet LAX01,34.061086,-118.293315,34.060692,-118.293531,48.0,2,True,SUGGESTION - confirm on Google Earth,"https://earth.google.com/web/@34.061086,-118.293315,0a,150d,35y"
dc_65462e0cdff1,The Garland Center / West 7 Center,34.05112,-118.26591,34.051157,-118.267678,163.3,0,False,no building nearby - manual,"https://earth.google.com/web/@34.05112,-118.26591,0a,150d,35y"
dc_a6a8876c4b50,Evocative LAX14,33.889248,-118.368733,33.889628,-118.369095,53.9,1,False,SUGGESTION - confirm on Google Earth,"https://earth.google.com/web/@33.889248,-118.368733,0a,150d,35y"
dc_f94db4d64ace,OCDC Orange County Datacenter Santa Ana,33.729872,-117.851779,33.729563,-117.84989,178.4,0,False,no building nearby - manual,"https://earth.google.com/web/@33.729872,-117.851779,0a,150d,35y"
dc_ee2dabe2d034,IC2NET Data Center,33.717178,-117.803253,33.717952,-117.803196,86.0,0,False,no building nearby - manual,"https://earth.google.com/web/@33.717178,-117.803253,0a,150d,35y"
dc_c83ebcd9777a,DataBank Irvine (SNA1),33.690423,-117.840518,33.689995,-117.840062,63.6,0,False,SUGGESTION - confirm on Google Earth,"https://earth.google.com/web/@33.690423,-117.840518,0a,150d,35y"
dc_5155a7762cb7,Centersquare Los Angeles (LAX5),33.684675,-117.836821,33.685386,-117.837612,107.7,0,False,no building nearby - manual,"https://earth.google.com/web/@33.684675,-117.836821,0a,150d,35y"
dc_84fb51e4e530,DataBank Irvine (SNA2),33.687905,-117.842407,33.688551,-117.84178,92.2,0,False,no building nearby - manual,"https://earth.google.com/web/@33.687905,-117.842407,0a,150d,35y"
dc_e1ff79fe6a61,Fireline Broadband,33.948356,-118.073256,33.949359,-118.073279,111.2,0,False,no building nearby - manual,"https://earth.google.com/web/@33.948356,-118.073256,0a,150d,35y"
dc_3f21766275d1,Cogent La Mirada,33.879828,-118.026751,33.880683,-118.02842,181.2,0,False,no building nearby - manual,"https://earth.google.com/web/@33.879828,-118.026751,0a,150d,35y"
dc_6cab86b4b98b,US Bank Building,47.658139,-117.4193,47.657701,-117.41911,50.8,1,False,SUGGESTION - confirm on Google Earth,"https://earth.google.com/web/@47.658139,-117.4193,0a,150d,35y"
dc_0378cf1ad710,Neutron - Spokane,47.658366,-117.419213,47.657701,-117.41911,74.4,0,False,SUGGESTION - confirm on Google Earth,"https://earth.google.com/web/@47.658366,-117.419213,0a,150d,35y"
dc_d19c07e250c3,I2B SAN01,32.830139,-117.13445,32.830754,-117.13436,68.7,0,False,SUGGESTION - confirm on Google Earth,"https://earth.google.com/web/@32.830139,-117.13445,0a,150d,35y"
dc_9b38c6590761,EdgeConneX San Diego (EDCSDG01),32.84049,-117.168374,32.84001,-117.168382,53.3,1,False,SUGGESTION - confirm on Google Earth,"https://earth.google.com/web/@32.84049,-117.168374,0a,150d,35y"
dc_de24883d5033,Fiber Alley 8915,32.829836,-117.134159,32.829466,-117.134789,71.9,0,False,SUGGESTION - confirm on Google Earth,"https://earth.google.com/web/@32.829836,-117.134159,0a,150d,35y"
dc_178934ce0e29,Fiber Alley 8917,32.829836,-117.134159,32.829466,-117.134789,71.9,0,False,SUGGESTION - confirm on Google Earth,"https://earth.google.com/web/@32.829836,-117.134159,0a,150d,35y"
dc_cb548352378e,ScaleMatrix San Diego Data Center US-West 01,32.838205,-117.133185,32.838429,-117.132411,76.6,0,False,SUGGESTION - confirm on Google Earth,"https://earth.google.com/web/@32.838205,-117.133185,0a,150d,35y"
dc_6089ed0d5f26,San Diego Supercomputer Center,32.8844,-117.239,32.884042,-117.239332,50.4,1,False,SUGGESTION - confirm on Google Earth,"https://earth.google.com/web/@32.8844,-117.239,0a,150d,35y"
dc_606ad9c4165a,Syringa Networks Boise,43.567545,-116.207057,43.569512,-116.206431,224.3,0,False,no building nearby - manual,"https://earth.google.com/web/@43.567545,-116.207057,0a,150d,35y"
dc_5f370fd573c6,Level(3) Boise,43.56619,-116.185889,43.565899,-116.185482,46.1,2,True,SUGGESTION - confirm on Google Earth,"https://earth.google.com/web/@43.56619,-116.185889,0a,150d,35y"
dc_db573af22b8c,DataBank Las Vegas (LAS1),36.059162,-115.145989,36.05898,-115.146614,59.8,1,False,SUGGESTION - confirm on Google Earth,"https://earth.google.com/web/@36.059162,-115.145989,0a,150d,35y"
dc_c97738231c91,iConnect Missoula,46.87101,-113.989835,46.87133,-113.990059,39.5,4,True,SUGGESTION - confirm on Google Earth,"https://earth.google.com/web/@46.87101,-113.989835,0a,150d,35y"
dc_436d369c718f,DataBank Phoenix (PHX1),33.483936,-112.0767,33.483463,-112.07696,57.8,1,False,SUGGESTION - confirm on Google Earth,"https://earth.google.com/web/@33.483936,-112.0767,0a,150d,35y"
dc_0710358899ef,QTS Phoenix (PHX2),33.462368,-111.995794,33.462569,-111.995604,28.4,4,True,SUGGESTION - confirm on Google Earth,"https://earth.google.com/web/@33.462368,-111.995794,0a,150d,35y"
dc_f4381f508e7b,XMission - Salt Lake City - Utah,40.7609,-111.888856,40.761253,-111.88992,98.1,0,False,no building nearby - manual,"https://earth.google.com/web/@40.7609,-111.888856,0a,150d,35y"
dc_c2f977e5b859,UFN Kearns,40.766212,-111.891494,40.766756,-111.89256,108.4,0,False,no building nearby - manual,"https://earth.google.com/web/@40.766212,-111.891494,0a,150d,35y"
dc_dfc785a7c7de,Flexential - Salt Lake City/Cottonwood (SLC05),40.634811,-111.805979,40.635695,-111.806554,109.6,0,False,no building nearby - manual,"https://earth.google.com/web/@40.634811,-111.805979,0a,150d,35y"
dc_2d61a33ca46b,Flexential - Salt Lake City/South Valley (SLC09),40.620556,-111.984644,40.621328,-111.984798,86.7,0,False,no building nearby - manual,"https://earth.google.com/web/@40.620556,-111.984644,0a,150d,35y"
dc_f2375e9e8272,DataBank Salt Lake City (SLC1),40.768519,-111.885833,40.767857,-111.884977,103.0,0,False,no building nearby - manual,"https://earth.google.com/web/@40.768519,-111.885833,0a,150d,35y"
dc_fca78ca8bfb8,Google Data Center,33.3541387,-111.6764271,33.350196,-111.676508,437.3,0,False,no building nearby - manual,"https://earth.google.com/web/@33.3541387,-111.6764271,0a,150d,35y"
dc_d79e66e14276,NTT PH1 Datacenter,33.3536663,-111.6124114,33.358151,-111.611812,500.5,0,False,no building nearby - manual,"https://earth.google.com/web/@33.3536663,-111.6124114,0a,150d,35y"
dc_d9001f9c6c9e,EdgeCore Phoenix,33.345396,-111.619886,33.344054,-111.619588,151.4,0,False,no building nearby - manual,"https://earth.google.com/web/@33.345396,-111.619886,0a,150d,35y"
dc_f11fcbc90179,MDC Nogales,31.334862,-110.943701,31.335026,-110.943346,38.4,3,True,SUGGESTION - confirm on Google Earth,"https://earth.google.com/web/@31.334862,-110.943701,0a,150d,35y"
dc_125f47540bac,ACT Riverton,43.023952,-108.3816,43.023899,-108.38113,38.8,3,True,SUGGESTION - confirm on Google Earth,"https://earth.google.com/web/@43.023952,-108.3816,0a,150d,35y"
dc_9448c3ccf011,iConnect Billings Fiber Hotel,45.781098,-108.512522,45.780801,-108.512736,36.9,2,True,SUGGESTION - confirm on Google Earth,"https://earth.google.com/web/@45.781098,-108.512522,0a,150d,35y"
dc_d8cbe6a83e85,YRIX,45.781051,-108.512531,45.780801,-108.512736,32.0,2,True,SUGGESTION - confirm on Google Earth,"https://earth.google.com/web/@45.781051,-108.512531,0a,150d,35y"
dc_42b486a76993,Cogent Billings,45.740895,-108.591913,45.741443,-108.592028,61.6,0,False,SUGGESTION - confirm on Google Earth,"https://earth.google.com/web/@45.740895,-108.591913,0a,150d,35y"
dc_f962646a287f,Meta Los Lunas Data Center,34.8298309,-106.77852,34.830874,-106.778925,121.5,0,False,no building nearby - manual,"https://earth.google.com/web/@34.8298309,-106.77852,0a,150d,35y"
dc_4cfa0741336f,ServerCondo-219 Albuquerque,35.084663,-106.650102,35.085236,-106.64976,70.8,0,False,SUGGESTION - confirm on Google Earth,"https://earth.google.com/web/@35.084663,-106.650102,0a,150d,35y"
dc_739935478bcb,Centersquare Albuquerque (ABQ1),35.086183,-106.651864,35.085699,-106.65156,60.4,1,False,SUGGESTION - confirm on Google Earth,"https://earth.google.com/web/@35.086183,-106.651864,0a,150d,35y"
dc_7f5f90e935c4,H5 Data Centers Albuquerque,35.088555,-106.652284,35.089235,-106.652804,89.1,0,False,no building nearby - manual,"https://earth.google.com/web/@35.088555,-106.652284,0a,150d,35y"
dc_7db6a874da87,ACT Buffalo,44.354194,-106.696638,44.354591,-106.696552,44.7,2,True,SUGGESTION - confirm on Google Earth,"https://earth.google.com/web/@44.354194,-106.696638,0a,150d,35y"
dc_6f74b8c1ecc5,ACT Colstrip,45.89347,-106.618344,45.890458,-106.614619,442.3,0,False,no building nearby - manual,"https://earth.google.com/web/@45.89347,-106.618344,0a,150d,35y"
dc_4c0328a22c39,Southwest Cyberport Albuquerque,35.102314,-106.589084,35.101582,-106.589319,84.0,0,False,no building nearby - manual,"https://earth.google.com/web/@35.102314,-106.589084,0a,150d,35y"
dc_58ca51de8887,ACT Gillette,44.246829,-105.504717,,,,,,no independent buildings found - manual,"https://earth.google.com/web/@44.246829,-105.504717,0a,150d,35y"
dc_9d03f9d03002,BLDR-1919,40.017695,-105.277335,40.018403,-105.27778,87.3,0,False,no building nearby - manual,"https://earth.google.com/web/@40.017695,-105.277335,0a,150d,35y"
dc_0ccbc7a90b2d,ACT Douglas,42.734225,-105.338279,,,,,,no independent buildings found - manual,"https://earth.google.com/web/@42.734225,-105.338279,0a,150d,35y"
dc_d8cbb9e4b58b,CoreSite - Denver (DE1),39.745636,-104.995636,39.746003,-104.995306,49.6,1,False,SUGGESTION - confirm on Google Earth,"https://earth.google.com/web/@39.745636,-104.995636,0a,150d,35y"
dc_555e7f99046e,Equinix DE2 - Denver,39.560317,-104.857528,39.560565,-104.856466,95.3,0,False,no building nearby - manual,"https://earth.google.com/web/@39.560317,-104.857528,0a,150d,35y"
dc_85af46cfd088,1500 Champa,39.745765,-104.994399,39.746282,-104.994774,65.8,0,False,SUGGESTION - confirm on Google Earth,"https://earth.google.com/web/@39.745765,-104.994399,0a,150d,35y"
dc_aea1cf806ec1,EdgeConneX Denver (EDCDEN01),39.561073,-104.826671,39.560853,-104.827547,79.2,0,False,SUGGESTION - confirm on Google Earth,"https://earth.google.com/web/@39.561073,-104.826671,0a,150d,35y"
dc_33b0acb3fbfc,Flexential - Denver/Englewood (DEN11),39.559047,-104.8386,39.559315,-104.838642,30.0,4,True,SUGGESTION - confirm on Google Earth,"https://earth.google.com/web/@39.559047,-104.8386,0a,150d,35y"
dc_9aa547ca020f,DataBank Denver (DEN1),39.564112,-104.866554,39.563178,-104.866835,106.4,0,False,no building nearby - manual,"https://earth.google.com/web/@39.564112,-104.866554,0a,150d,35y"
dc_165b15e48a25,Equinix DE1 - Denver,39.587739,-104.864707,39.588554,-104.863999,109.0,0,False,no building nearby - manual,"https://earth.google.com/web/@39.587739,-104.864707,0a,150d,35y"
dc_bb40d67d2a9d,DataBank Denver (DEN3),39.74576,-104.994518,39.746234,-104.994837,59.3,2,True,SUGGESTION - confirm on Google Earth,"https://earth.google.com/web/@39.74576,-104.994518,0a,150d,35y"
dc_af4daeefc3e5,365 Data Centers Aurora (CO1),39.762184,-104.760923,39.761887,-104.761119,37.0,1,False,SUGGESTION - confirm on Google Earth,"https://earth.google.com/web/@39.762184,-104.760923,0a,150d,35y"
dc_43484bcf3562,Sungard AS Thornton,39.847081,-104.979182,39.846807,-104.979447,38.0,1,False,SUGGESTION - confirm on Google Earth,"https://earth.google.com/web/@39.847081,-104.979182,0a,150d,35y"
dc_7b42f550217b,Microsoft CYS Datacenter,41.1225882,-104.9035166,41.123797,-104.904016,140.6,0,False,no building nearby - manual,"https://earth.google.com/web/@41.1225882,-104.9035166,0a,150d,35y"
dc_180d30e8b4da,ACT Cheyenne,41.131025,-104.900887,41.13103,-104.9006,24.1,2,True,SUGGESTION - confirm on Google Earth,"https://earth.google.com/web/@41.131025,-104.900887,0a,150d,35y"
dc_2b69bfa841ef,ACT Wheatland,42.045087,-104.963884,42.045573,-104.963881,53.9,1,False,SUGGESTION - confirm on Google Earth,"https://earth.google.com/web/@42.045087,-104.963884,0a,150d,35y"
dc_3e38f37da8cc,IONIC Digital Cedarvale,31.5134441,-103.4485477,,,,,,no independent buildings found - manual,"https://earth.google.com/web/@31.5134441,-103.4485477,0a,150d,35y"
dc_1daa73860d72,Argo Data Center,33.777264,-100.8689012,,,,,,no independent buildings found - manual,"https://earth.google.com/web/@33.777264,-100.8689012,0a,150d,35y"
dc_8a72989b8621,ELN02,46.012816,-98.569881,,,,,,no independent buildings found - manual,"https://earth.google.com/web/@46.012816,-98.569881,0a,150d,35y"
dc_39a8cb17ab9f,Level(3) Austin (Kramer),30.385034,-97.70922,30.386277,-97.706202,321.1,0,False,no building nearby - manual,"https://earth.google.com/web/@30.385034,-97.70922,0a,150d,35y"
dc_49e9f7db52dc,Data Foundry Austin 1,30.215259,-97.695071,30.214894,-97.696945,184.9,0,False,no building nearby - manual,"https://earth.google.com/web/@30.215259,-97.695071,0a,150d,35y"
dc_e398f3978d57,Alpheus Austin (1905 E. 6th Street),30.261059,-97.722123,30.260781,-97.721863,39.7,1,False,SUGGESTION - confirm on Google Earth,"https://earth.google.com/web/@30.261059,-97.722123,0a,150d,35y"
dc_a1d2bf1489bd,BESTNAP,30.273541,-97.742944,30.273926,-97.743125,46.1,3,True,SUGGESTION - confirm on Google Earth,"https://earth.google.com/web/@30.273541,-97.742944,0a,150d,35y"
dc_8d25991bfa8d,Element Critical  Austin AUS1,30.3421,-97.6963,30.342535,-97.696724,63.1,0,False,SUGGESTION - confirm on Google Earth,"https://earth.google.com/web/@30.3421,-97.6963,0a,150d,35y"
dc_7a668eda7453,Digital Realty AUS (7500 Metro Center Dr),30.212179,-97.695775,30.211991,-97.694643,110.9,0,False,no building nearby - manual,"https://earth.google.com/web/@30.212179,-97.695775,0a,150d,35y"
dc_d74048d15a6b,LightEdge Austin 2 (AUS2),30.200169,-97.70627,30.201278,-97.704906,179.9,0,False,no building nearby - manual,"https://earth.google.com/web/@30.200169,-97.70627,0a,150d,35y"
dc_517844b7b7df,DataBank Austin (AUS1),30.436287,-97.763776,30.43697,-97.764599,109.5,0,False,no building nearby - manual,"https://earth.google.com/web/@30.436287,-97.763776,0a,150d,35y"
dc_d0177d80704c,Cogent Austin,30.209234,-97.697975,30.206951,-97.701119,394.6,0,False,no building nearby - manual,"https://earth.google.com/web/@30.209234,-97.697975,0a,150d,35y"
dc_21bf956aedf2,MARA Data Center,32.3413407,-97.7316918,32.341124,-97.734558,270.9,0,False,no building nearby - manual,"https://earth.google.com/web/@32.3413407,-97.7316918,0a,150d,35y"
dc_36a3c1c1f362,RACK59 Data Center,35.466482,-97.649302,35.465343,-97.649367,126.5,0,False,no building nearby - manual,"https://earth.google.com/web/@35.466482,-97.649302,0a,150d,35y"
dc_f6ebe4e52512,Foremost Corpus Christi,27.795871,-97.397251,27.7954,-97.398309,116.6,0,False,no building nearby - manual,"https://earth.google.com/web/@27.795871,-97.397251,0a,150d,35y"
dc_50f300dbed19,Alpheus Fort Worth (307 W 7th St),32.751443,-97.331678,32.752012,-97.3321,74.5,0,False,SUGGESTION - confirm on Google Earth,"https://earth.google.com/web/@32.751443,-97.331678,0a,150d,35y"
dc_6f3dc8f369c9,QTS Fort Worth (FTW1),32.988738,-97.258448,32.989657,-97.2569,177.0,0,False,no building nearby - manual,"https://earth.google.com/web/@32.988738,-97.258448,0a,150d,35y"
dc_6396a9188b64,Midco Grand Forks,47.902115,-97.090307,47.903297,-97.091298,150.9,0,False,no building nearby - manual,"https://earth.google.com/web/@47.902115,-97.090307,0a,150d,35y"
dc_2e3dadc752a4,Digital Realty DFW (2323 Bryan St),32.787212,-96.794219,32.787277,-96.793111,104.0,0,False,no building nearby - manual,"https://earth.google.com/web/@32.787212,-96.794219,0a,150d,35y"
dc_bb7e64ba6a05,Equinix DA4 - Dallas,32.787212,-96.794219,32.787277,-96.793111,104.0,0,False,no building nearby - manual,"https://earth.google.com/web/@32.787212,-96.794219,0a,150d,35y"
dc_1d8cca75d953,Digital Realty DFW (1232 Alma),32.966309,-96.715602,32.96449,-96.714436,229.3,0,False,no building nearby - manual,"https://earth.google.com/web/@32.966309,-96.715602,0a,150d,35y"
dc_58616fe2297e,CyrusOne Dallas (Carrollton),32.991929,-96.930465,32.992571,-96.929386,123.5,0,False,no building nearby - manual,"https://earth.google.com/web/@32.991929,-96.930465,0a,150d,35y"
dc_55529f8314f5,Flexential - Dallas/Richardson (RCH01),32.993304,-96.756242,32.99524,-96.757367,239.1,0,False,no building nearby - manual,"https://earth.google.com/web/@32.993304,-96.756242,0a,150d,35y"
dc_5fef38fd6a16,Digital Realty IAD 39 (44274 Round Table),32.958748,-96.822079,32.959248,-96.820552,153.1,0,False,no building nearby - manual,"https://earth.google.com/web/@32.958748,-96.822079,0a,150d,35y"
dc_68edd4e8e2ac,Centersquare Dallas (DFW3),32.911684,-96.87274,32.90716,-96.873248,503.9,0,False,no building nearby - manual,"https://earth.google.com/web/@32.911684,-96.87274,0a,150d,35y"
dc_9d948b20f397,Stream Data Centers - DFW VII,32.983596,-96.655836,32.982948,-96.655357,84.7,0,False,no building nearby - manual,"https://earth.google.com/web/@32.983596,-96.655836,0a,150d,35y"
dc_83a22ad07c8d,Digital Realty DFW18 (1210 Integrity Dr),32.96547,-96.711986,32.96449,-96.714436,253.5,0,False,no building nearby - manual,"https://earth.google.com/web/@32.96547,-96.711986,0a,150d,35y"
dc_2146da00a164,365 Data Centers Richardson (TX1),32.976121,-96.707323,32.978666,-96.70704,283.5,0,False,no building nearby - manual,"https://earth.google.com/web/@32.976121,-96.707323,0a,150d,35y"
dc_95ab7384a93f,DataBank Dallas (DFW3),33.08846,-96.813905,33.090507,-96.815732,283.9,0,False,no building nearby - manual,"https://earth.google.com/web/@33.08846,-96.813905,0a,150d,35y"
dc_7aae4d4abf47,TierPoint Dallas2 - Allen,33.137525,-96.657906,33.137717,-96.655954,183.3,0,False,no building nearby - manual,"https://earth.google.com/web/@33.137525,-96.657906,0a,150d,35y"
dc_50b6ee35fe1a,CyrusOne Dallas (Allen),33.137525,-96.657906,33.137717,-96.655954,183.3,0,False,no building nearby - manual,"https://earth.google.com/web/@33.137525,-96.657906,0a,150d,35y"
dc_ca70c0deb389,Centersquare Dallas (DFW2),33.094894,-96.68326,33.093823,-96.682597,134.0,0,False,no building nearby - manual,"https://earth.google.com/web/@33.094894,-96.68326,0a,150d,35y"
dc_66e8fa6175af,Evocative DAL6,33.015681,-96.768421,33.01522,-96.768669,56.1,1,False,SUGGESTION - confirm on Google Earth,"https://earth.google.com/web/@33.015681,-96.768421,0a,150d,35y"
dc_ae8edb4e2092,Digital Realty DFW (4025 Midway Road),33.021668,-96.844732,33.022418,-96.845111,90.4,0,False,no building nearby - manual,"https://earth.google.com/web/@33.021668,-96.844732,0a,150d,35y"
dc_68e03ee6464c,ScaleMatrix Dallas Data Center US-South 01,33.138618,-96.657387,33.137717,-96.655954,166.9,0,False,no building nearby - manual,"https://earth.google.com/web/@33.138618,-96.657387,0a,150d,35y"
dc_95c9a70f2492,Binary Net Vault,40.812702,-96.70235,40.81173,-96.702076,110.4,0,False,no building nearby - manual,"https://earth.google.com/web/@40.812702,-96.70235,0a,150d,35y"
dc_a4a29a509851,SDN Communication Mark Shlanta Technology Park,43.605177,-96.808315,43.604178,-96.807782,119.0,0,False,no building nearby - manual,"https://earth.google.com/web/@43.605177,-96.808315,0a,150d,35y"
dc_68d97fc661d5,TierPoint Sioux Falls - West,43.606059,-96.810208,43.604178,-96.807782,286.4,0,False,no building nearby - manual,"https://earth.google.com/web/@43.606059,-96.810208,0a,150d,35y"
dc_69c4af3b8176,Midco Sioux Falls,43.496635,-96.785669,43.497371,-96.785612,81.9,0,False,no building nearby - manual,"https://earth.google.com/web/@43.496635,-96.785669,0a,150d,35y"
dc_5374f5d1551e,DCN Dakota Carrier Networks,46.8141,-96.841621,46.814866,-96.842115,93.1,0,False,no building nearby - manual,"https://earth.google.com/web/@46.8141,-96.841621,0a,150d,35y"
dc_586f965d0e34,Long Lines Data Center,42.483287,-96.348107,42.485811,-96.346771,301.2,0,False,no building nearby - manual,"https://earth.google.com/web/@42.483287,-96.348107,0a,150d,35y"
dc_57e09c860fe5,,41.3429656,-96.0902066,41.34178,-96.092986,267.3,0,False,no building nearby - manual,"https://earth.google.com/web/@41.3429656,-96.0902066,0a,150d,35y"
dc_c71975653c6c,LightEdge Omaha (OMA1),41.159748,-96.025585,41.158166,-96.026714,199.6,0,False,no building nearby - manual,"https://earth.google.com/web/@41.159748,-96.025585,0a,150d,35y"
dc_be781da0ac27,H5 Data Centers Omaha,41.180701,-96.084974,41.179386,-96.08498,146.0,0,False,no building nearby - manual,"https://earth.google.com/web/@41.180701,-96.084974,0a,150d,35y"
dc_86334a11f204,Databank Houston Galleria (HOU5),29.728119,-95.445075,29.728385,-95.445589,57.8,1,False,SUGGESTION - confirm on Google Earth,"https://earth.google.com/web/@29.728119,-95.445075,0a,150d,35y"
dc_3706cdb29bf1,Data Foundry Houston 1,29.749429,-95.471792,29.749842,-95.471143,77.7,0,False,SUGGESTION - confirm on Google Earth,"https://earth.google.com/web/@29.749429,-95.471792,0a,150d,35y"
dc_363733e77dcd,Houston Bunker,30.377702,-95.668803,30.376802,-95.669352,112.9,0,False,no building nearby - manual,"https://earth.google.com/web/@30.377702,-95.668803,0a,150d,35y"
dc_47d937b135c2,Netrality Houston - 1301 Fannin,29.753242,-95.365882,29.753111,-95.366425,54.5,1,False,SUGGESTION - confirm on Google Earth,"https://earth.google.com/web/@29.753242,-95.365882,0a,150d,35y"
dc_c5961d5d88a0,INAP Houston,29.753536,-95.365771,29.753111,-95.366425,78.9,0,False,SUGGESTION - confirm on Google Earth,"https://earth.google.com/web/@29.753536,-95.365771,0a,150d,35y"
dc_cebfa79ec447,South Spencer Aureon hut,43.112257,-95.120631,43.111367,-95.121851,140.1,0,False,no building nearby - manual,"https://earth.google.com/web/@43.112257,-95.120631,0a,150d,35y"
dc_80da332f0c37,DataBank Kansas City (MCI2),38.975187,-94.708903,38.974557,-94.708755,71.1,0,False,SUGGESTION - confirm on Google Earth,"https://earth.google.com/web/@38.975187,-94.708903,0a,150d,35y"
dc_25e74ffcb872,DataBank Kansas City (MCI3),38.92519,-94.77028,38.924756,-94.770112,50.3,1,False,SUGGESTION - confirm on Google Earth,"https://earth.google.com/web/@38.92519,-94.77028,0a,150d,35y"
dc_19d78aae92b7,LightEdge Kansas City Cavern (KCI2),38.95187,-94.789552,38.957044,-94.792383,624.6,0,False,no building nearby - manual,"https://earth.google.com/web/@38.95187,-94.789552,0a,150d,35y"
dc_7fe57b05a442,Netrality Kansas City - 1102 Grand,39.100941,-94.581036,39.101541,-94.581146,67.3,0,False,SUGGESTION - confirm on Google Earth,"https://earth.google.com/web/@39.100941,-94.581036,0a,150d,35y"
dc_bd177f82d3dd,Level(3) Kansas City,39.100517,-94.582419,39.100413,-94.583775,117.8,0,False,no building nearby - manual,"https://earth.google.com/web/@39.100517,-94.582419,0a,150d,35y"
dc_551d1055ddc3,LightEdge Kansas City Subtropolis (KCI1),39.159195,-94.471237,39.158128,-94.470417,138.0,0,False,no building nearby - manual,"https://earth.google.com/web/@39.159195,-94.471237,0a,150d,35y"
dc_f7e77aebe39c,Iron Mountain Data Center - Kansas City (KCM-1),39.010862,-94.501281,39.011474,-94.502156,101.8,0,False,no building nearby - manual,"https://earth.google.com/web/@39.010862,-94.501281,0a,150d,35y"
dc_7aabaf75c3ad,UnReal Servers,39.13335,-94.580005,39.13452,-94.581274,170.0,0,False,no building nearby - manual,"https://earth.google.com/web/@39.13335,-94.580005,0a,150d,35y"
dc_3d42335bad72,1530 SWIFT - NOCIX,39.136878,-94.577558,39.138731,-94.577875,207.5,0,False,no building nearby - manual,"https://earth.google.com/web/@39.136878,-94.577558,0a,150d,35y"
dc_94004336071b,NOCIX Clay Facility,39.137389,-94.578645,39.138731,-94.577875,163.2,0,False,no building nearby - manual,"https://earth.google.com/web/@39.137389,-94.578645,0a,150d,35y"
dc_485eed312522,Bryant Building,39.100808333,-94.581047222,39.101541,-94.581146,81.8,0,False,no building nearby - manual,"https://earth.google.com/web/@39.100808333,-94.581047222,0a,150d,35y"
dc_d66268183bda,"DartPoints Shreveport, LA - SHV1",32.511085,-93.749942,32.511045,-93.750628,64.6,0,False,SUGGESTION - confirm on Google Earth,"https://earth.google.com/web/@32.511085,-93.749942,0a,150d,35y"
dc_b6fbffa58ede,ARE-ON Hope,33.664742,-93.600378,33.664756,-93.600663,26.4,5,True,SUGGESTION - confirm on Google Earth,"https://earth.google.com/web/@33.664742,-93.600378,0a,150d,35y"
dc_b013e69db6d4,IP Pathways DSM1,41.627418,-93.768033,41.62876,-93.768561,155.4,0,False,no building nearby - manual,"https://earth.google.com/web/@41.627418,-93.768033,0a,150d,35y"
dc_c7c6e35626c1,Connect Des Moines,41.585529,-93.625422,41.584512,-93.62512,115.7,0,False,no building nearby - manual,"https://earth.google.com/web/@41.585529,-93.625422,0a,150d,35y"
dc_61f104ef7e31,Aureon West Des Moines,41.597249,-93.735197,41.597751,-93.735219,55.8,1,False,SUGGESTION - confirm on Google Earth,"https://earth.google.com/web/@41.597249,-93.735197,0a,150d,35y"
dc_a79d487eebc7,Cologix DSM1,41.585529,-93.625422,41.584512,-93.62512,115.7,0,False,no building nearby - manual,"https://earth.google.com/web/@41.585529,-93.625422,0a,150d,35y"
dc_83495392fdac,NP Belle Plaine (MSP1),44.624122,-93.778109,44.623865,-93.778244,30.5,6,True,SUGGESTION - confirm on Google Earth,"https://earth.google.com/web/@44.624122,-93.778109,0a,150d,35y"
dc_64c7a0c8382c,Stream Data Centers - MN I,44.808431,-93.636931,44.810726,-93.634183,335.1,0,False,no building nearby - manual,"https://earth.google.com/web/@44.808431,-93.636931,0a,150d,35y"
dc_ccc53908a275,Bluebird Underground Data Center,37.231398,-93.212181,37.230563,-93.213188,128.8,0,False,no building nearby - manual,"https://earth.google.com/web/@37.231398,-93.212181,0a,150d,35y"
dc_cfa299c09d66,SFN IA-IowaFalls,42.555386,-93.259636,42.556549,-93.259193,134.2,0,False,no building nearby - manual,"https://earth.google.com/web/@42.555386,-93.259636,0a,150d,35y"
dc_1c6b983e109a,Router12 - Brick and Tile,43.151696,-93.199328,43.152014,-93.199169,37.7,4,True,SUGGESTION - confirm on Google Earth,"https://earth.google.com/web/@43.151696,-93.199328,0a,150d,35y"
dc_c958657a0348,TriTech Center,44.97859,-93.266407,44.979186,-93.266176,68.7,1,False,SUGGESTION - confirm on Google Earth,"https://earth.google.com/web/@44.97859,-93.266407,0a,150d,35y"
dc_9b2065354392,Atomic Data MSP250,44.980944,-93.267514,44.981216,-93.268089,54.5,1,False,SUGGESTION - confirm on Google Earth,"https://earth.google.com/web/@44.980944,-93.267514,0a,150d,35y"
dc_a525f7501d71,DataBank Minneapolis (MSP3),45.14438,-93.385913,45.145702,-93.382521,304.5,0,False,no building nearby - manual,"https://earth.google.com/web/@45.14438,-93.385913,0a,150d,35y"
dc_e8c73d76dcdd,Mainstream Little Rock,34.744124,-92.274415,34.743618,-92.273329,114.1,0,False,no building nearby - manual,"https://earth.google.com/web/@34.744124,-92.274415,0a,150d,35y"
dc_020b4e91299a,SFN IA-Waterloo,42.488836,-92.330614,42.48902,-92.330871,29.4,7,True,SUGGESTION - confirm on Google Earth,"https://earth.google.com/web/@42.488836,-92.330614,0a,150d,35y"
dc_ca6a6b6b42c4,Connect Cedar Valley,42.474167,-92.458792,42.474456,-92.45794,77.0,0,False,SUGGESTION - confirm on Google Earth,"https://earth.google.com/web/@42.474167,-92.458792,0a,150d,35y"
dc_518cb525fd88,Cologix DSM2,42.474028,-92.458755,42.474456,-92.45794,82.1,0,False,no building nearby - manual,"https://earth.google.com/web/@42.474028,-92.458755,0a,150d,35y"
dc_ec064dc4d572,NP Rochester,44.020868,-92.462576,44.020928,-92.462004,46.3,1,False,SUGGESTION - confirm on Google Earth,"https://earth.google.com/web/@44.020868,-92.462576,0a,150d,35y"
dc_c04730ac0683,SFN MN-Rochester,44.020906,-92.462501,44.020928,-92.462004,39.9,1,False,SUGGESTION - confirm on Google Earth,"https://earth.google.com/web/@44.020906,-92.462501,0a,150d,35y"
dc_74be05054a07,Duluth Missabe,46.785022,-92.103083,46.785303,-92.103467,42.9,1,False,SUGGESTION - confirm on Google Earth,"https://earth.google.com/web/@46.785022,-92.103083,0a,150d,35y"
dc_936035203d1f,421 N 6th Ave East,46.795743,-92.096014,46.796048,-92.095567,48.1,1,False,SUGGESTION - confirm on Google Earth,"https://earth.google.com/web/@46.795743,-92.096014,0a,150d,35y"
dc_58f71a0cfadd,Hyperion,32.477149,-91.632333,,,,,,no independent buildings found - manual,"https://earth.google.com/web/@32.477149,-91.632333,0a,150d,35y"
dc_bc98d15f165a,"DartPoints North Liberty, IA",41.756979,-91.596653,41.755304,-91.596461,186.8,0,False,no building nearby - manual,"https://earth.google.com/web/@41.756979,-91.596653,0a,150d,35y"
dc_79dfa0f520ee,Enseva Cedar Rapids,42.05634,-91.679566,42.056292,-91.678659,75.2,0,False,SUGGESTION - confirm on Google Earth,"https://earth.google.com/web/@42.05634,-91.679566,0a,150d,35y"
dc_9cbf0a55e19a,"ark data centers - Cedar Rapids ,IA",42.052632,-91.554004,42.052655,-91.552443,129.3,0,False,no building nearby - manual,"https://earth.google.com/web/@42.052632,-91.554004,0a,150d,35y"
dc_ef12919892c5,Venyu BTR1,30.45352,-91.115624,30.453533,-91.114245,132.5,0,False,no building nearby - manual,"https://earth.google.com/web/@30.45352,-91.115624,0a,150d,35y"
dc_ab2a3e5edefd,"DartPoints Baton Rouge, LA - BTR1",30.452287,-91.115571,30.452166,-91.116059,48.8,1,False,SUGGESTION - confirm on Google Earth,"https://earth.google.com/web/@30.452287,-91.115571,0a,150d,35y"
dc_b15cee237812,"DartPoints Baton Rouge, LA - BTR2",30.452287,-91.115571,30.452166,-91.116059,48.8,1,False,SUGGESTION - confirm on Google Earth,"https://earth.google.com/web/@30.452287,-91.115571,0a,150d,35y"
dc_2ce078333a5c,Cogent New Orleans,29.948875,-90.070115,29.949639,-90.069023,135.2,0,False,no building nearby - manual,"https://earth.google.com/web/@29.948875,-90.070115,0a,150d,35y"
dc_733aea2e5795,EdgeConneX Memphis (EDCMEM01),35.038995,-89.88623,35.040111,-89.885959,126.2,0,False,no building nearby - manual,"https://earth.google.com/web/@35.038995,-89.88623,0a,150d,35y"
dc_ff894257d489,Netrality St. Louis - 210 N Tucker,38.629332,-90.197305,38.630007,-90.197827,87.7,0,False,no building nearby - manual,"https://earth.google.com/web/@38.629332,-90.197305,0a,150d,35y"
dc_75d783969484,US Signal WI02 - Madison,42.994734,-89.423602,42.994251,-89.423535,54.0,1,False,SUGGESTION - confirm on Google Earth,"https://earth.google.com/web/@42.994734,-89.423602,0a,150d,35y"
dc_a110d272ec8d,Rochelle Technology Center,41.940574,-89.033813,41.937898,-89.031838,339.4,0,False,no building nearby - manual,"https://earth.google.com/web/@41.940574,-89.033813,0a,150d,35y"
dc_93d82a58a852,Network 222,43.073336,-89.386996,43.07276,-89.386183,92.1,0,False,no building nearby - manual,"https://earth.google.com/web/@43.073336,-89.386996,0a,150d,35y"
dc_fc171f02d21c,5Nines Data,43.073336,-89.386996,43.07276,-89.386183,92.1,0,False,no building nearby - manual,"https://earth.google.com/web/@43.073336,-89.386996,0a,150d,35y"
dc_445dff13f0cb,EdgeConneX Madison (EDCMAD01),43.04802,-89.297331,43.048419,-89.298185,82.5,0,False,no building nearby - manual,"https://earth.google.com/web/@43.04802,-89.297331,0a,150d,35y"
dc_a8a368db33bb,Quad State Internet PAH1 Colocation,37.09402,-88.634104,37.094008,-88.63384,23.5,7,True,SUGGESTION - confirm on Google Earth,"https://earth.google.com/web/@37.09402,-88.634104,0a,150d,35y"
dc_0bc4b8b71abf,Quad State Internet METRO1 Colocation,37.151821,-88.732324,37.151456,-88.731985,50.5,1,False,SUGGESTION - confirm on Google Earth,"https://earth.google.com/web/@37.151821,-88.732324,0a,150d,35y"
dc_9979cc01880f,Ethoplex Edge DC - Fond du Lac,43.833878,-88.494331,43.834649,-88.494076,88.1,0,False,no building nearby - manual,"https://earth.google.com/web/@43.833878,-88.494331,0a,150d,35y"
dc_267ac84b2d36,"ark data centers - Green Bay, WI",44.207099,-88.345585,44.20826,-88.346191,137.8,0,False,no building nearby - manual,"https://earth.google.com/web/@44.207099,-88.345585,0a,150d,35y"
dc_22d8db7b360c,T5@Chicago,42.023691,-87.973753,42.023424,-87.974274,52.4,1,False,SUGGESTION - confirm on Google Earth,"https://earth.google.com/web/@42.023691,-87.973753,0a,150d,35y"
dc_bf02966eb419,RagingWire CH1 - NTT,41.988567,-88.01368,41.988912,-88.013574,39.4,1,False,SUGGESTION - confirm on Google Earth,"https://earth.google.com/web/@41.988567,-88.01368,0a,150d,35y"
dc_079b9dd52c7e,CyberLynk MKE1,42.86183,-87.982826,42.860975,-87.983177,99.2,0,False,no building nearby - manual,"https://earth.google.com/web/@42.86183,-87.982826,0a,150d,35y"
dc_cb6d24a8690a,324 E Wisconsin,43.039016,-87.906937,43.040313,-87.906334,152.3,0,False,no building nearby - manual,"https://earth.google.com/web/@43.039016,-87.906937,0a,150d,35y"
dc_1459b4e7eef5,TSR Solutions Data Center,43.03904,-87.907046,43.040313,-87.906334,152.9,0,False,no building nearby - manual,"https://earth.google.com/web/@43.03904,-87.907046,0a,150d,35y"
dc_ee9c5e566c3c,Data Holdings Milwaukee,43.044331,-87.954079,43.044198,-87.954337,25.6,3,True,SUGGESTION - confirm on Google Earth,"https://earth.google.com/web/@43.044331,-87.954079,0a,150d,35y"
dc_e529dbcff544,Ethoplex Edge DC - Green Bay,44.428051,-88.050196,44.428486,-88.050182,48.4,2,True,SUGGESTION - confirm on Google Earth,"https://earth.google.com/web/@44.428051,-88.050196,0a,150d,35y"
dc_02182668c9f0,Level(3) Chicago (Canal),41.880436,-87.639611,41.880147,-87.63906,55.9,1,False,SUGGESTION - confirm on Google Earth,"https://earth.google.com/web/@41.880436,-87.639611,0a,150d,35y"
dc_3bb6faa489b4,Cogent Chicago 2,41.886487,-87.632145,41.886733,-87.631835,37.5,1,False,SUGGESTION - confirm on Google Earth,"https://earth.google.com/web/@41.886487,-87.632145,0a,150d,35y"
dc_4d97600c0104,DC BLOX BHM1 - DCBLOX Birmingham,33.49959,-86.821129,33.499796,-86.82051,61.9,0,False,SUGGESTION - confirm on Google Earth,"https://earth.google.com/web/@33.49959,-86.821129,0a,150d,35y"
dc_9b95847ef56f,DC BLOX HSV1 - DCBLOX Huntsville,34.711822,-86.692154,34.712131,-86.69329,109.6,0,False,no building nearby - manual,"https://earth.google.com/web/@34.711822,-86.692154,0a,150d,35y"
dc_da694d866879,H5 Data Centers Nashville,36.162626,-86.778674,36.162481,-86.779314,59.8,1,False,SUGGESTION - confirm on Google Earth,"https://earth.google.com/web/@36.162626,-86.778674,0a,150d,35y"
dc_528e1ba31c73,Level(3) Nashville (9th Ave),36.189148,-86.804111,36.18879,-86.803554,64.0,0,False,SUGGESTION - confirm on Google Earth,"https://earth.google.com/web/@36.189148,-86.804111,0a,150d,35y"
dc_2338d12e367c,RSA Dexter Avenue Datacenter,32.37803,-86.303007,32.378171,-86.303301,31.8,2,True,SUGGESTION - confirm on Google Earth,"https://earth.google.com/web/@32.37803,-86.303007,0a,150d,35y"
dc_404bbc86384a,Gallatin Data Center,36.4084957,-86.3716203,36.41054,-86.368451,363.7,0,False,no building nearby - manual,"https://earth.google.com/web/@36.4084957,-86.3716203,0a,150d,35y"
dc_c11c998fe76e,Amazon AWS Data Center,41.6677641,-86.4730555,41.671256,-86.473073,387.8,0,False,no building nearby - manual,"https://earth.google.com/web/@41.6677641,-86.4730555,0a,150d,35y"
dc_5fc5932e2fa1,Aunalytics South Bend Datacenter (AUSB),41.661423,-86.257342,41.659735,-86.258221,201.3,0,False,no building nearby - manual,"https://earth.google.com/web/@41.661423,-86.257342,0a,150d,35y"
dc_b0bc13ad8190,"DartPoints Columbus, IN - CLU1",39.182544,-85.897349,39.182565,-85.896807,46.9,1,False,SUGGESTION - confirm on Google Earth,"https://earth.google.com/web/@39.182544,-85.897349,0a,150d,35y"
dc_5a3cb29dc9a8,Netrality - Indy Telcom Center - 733 W. Henry,39.75988,-86.172275,39.760102,-86.171893,41.0,1,False,SUGGESTION - confirm on Google Earth,"https://earth.google.com/web/@39.75988,-86.172275,0a,150d,35y"
dc_aaaa51bde60b,DataBank Indianapolis (IND1),39.759374,-86.172235,39.758774,-86.172249,66.7,0,False,SUGGESTION - confirm on Google Earth,"https://earth.google.com/web/@39.759374,-86.172235,0a,150d,35y"
dc_3dc0908f81e0,ORI.NET Noblesville,40.045407,-86.013927,40.044389,-86.014095,113.9,0,False,no building nearby - manual,"https://earth.google.com/web/@40.045407,-86.013927,0a,150d,35y"
dc_f5141a487f0e,AUBix Auburn,32.601054,-85.513729,32.601607,-85.513722,61.4,0,False,SUGGESTION - confirm on Google Earth,"https://earth.google.com/web/@32.601054,-85.513729,0a,150d,35y"
dc_d44ec64700fa,Google Jackson County Data Center,34.9146647,-85.7483715,34.915114,-85.747512,93.0,0,False,no building nearby - manual,"https://earth.google.com/web/@34.9146647,-85.7483715,0a,150d,35y"
dc_2d3d06e9ea7a,Flexential - Louisville/East (LOU5),38.276081,-85.50733,38.277175,-85.50724,121.7,0,False,no building nearby - manual,"https://earth.google.com/web/@38.276081,-85.50733,0a,150d,35y"
dc_ddb7e68d3679,Heyburn Building,38.245857,-85.758047,38.245428,-85.757918,48.9,1,False,SUGGESTION - confirm on Google Earth,"https://earth.google.com/web/@38.245857,-85.758047,0a,150d,35y"
dc_5ae368e148c6,T5@Atlanta,33.763445,-84.604971,33.765664,-84.604908,246.2,0,False,no building nearby - manual,"https://earth.google.com/web/@33.763445,-84.604971,0a,150d,35y"
dc_83ffc6452bd2,EdgeConneX Tallahassee (EDCTAL01),30.471969,-84.353232,30.472296,-84.353309,37.0,3,True,SUGGESTION - confirm on Google Earth,"https://earth.google.com/web/@30.471969,-84.353232,0a,150d,35y"
dc_b4cb8f3be956,"Colo at 55, LLC",33.755807,-84.391066,33.75614,-84.390833,42.8,4,True,SUGGESTION - confirm on Google Earth,"https://earth.google.com/web/@33.755807,-84.391066,0a,150d,35y"
dc_b853c136e629,Equinix AT1 - Atlanta,33.758567,-84.387874,33.758276,-84.387853,32.3,2,True,SUGGESTION - confirm on Google Earth,"https://earth.google.com/web/@33.758567,-84.387874,0a,150d,35y"
dc_e81430ad9e71,Colo@34 (Downtown),33.754975,-84.389635,33.755326,-84.389453,42.4,3,True,SUGGESTION - confirm on Google Earth,"https://earth.google.com/web/@33.754975,-84.389635,0a,150d,35y"
dc_e40e30b5f07d,Level(3) Atlanta (Peachtree),33.758573,-84.387873,33.758276,-84.387853,33.0,2,True,SUGGESTION - confirm on Google Earth,"https://earth.google.com/web/@33.758573,-84.387873,0a,150d,35y"
dc_583b75cdc1d2,Centersquare Atlanta (ATL1-A/B/C),33.74424,-84.58259,33.745308,-84.583177,130.3,0,False,no building nearby - manual,"https://earth.google.com/web/@33.74424,-84.58259,0a,150d,35y"
dc_1c34e69b8d80,Coloblox Data Centers ATL2,33.755851,-84.391243,33.756239,-84.390946,51.1,4,True,SUGGESTION - confirm on Google Earth,"https://earth.google.com/web/@33.755851,-84.391243,0a,150d,35y"
dc_09dea9d939e5,Databank Atlanta (ATL1),33.775499,-84.387735,33.774886,-84.387735,68.0,0,False,SUGGESTION - confirm on Google Earth,"https://earth.google.com/web/@33.775499,-84.387735,0a,150d,35y"
dc_cc078a791020,Cogent Atlanta,33.755851,-84.391243,33.756239,-84.390946,51.1,4,True,SUGGESTION - confirm on Google Earth,"https://earth.google.com/web/@33.755851,-84.391243,0a,150d,35y"
dc_b86253ab50d7,DataBank Atlanta (ATL3),33.734567,-84.425652,33.734731,-84.425189,46.6,2,True,SUGGESTION - confirm on Google Earth,"https://earth.google.com/web/@33.734567,-84.425652,0a,150d,35y"
dc_ada9efdb9033,Southern Telecom,33.762044,-84.387804,33.76251,-84.38787,52.0,2,True,SUGGESTION - confirm on Google Earth,"https://earth.google.com/web/@33.762044,-84.387804,0a,150d,35y"
dc_faf2065fd962,DC BLOX ATL1 - DCBLOX Atlanta,33.831665,-84.339169,33.831843,-84.338106,100.4,0,False,no building nearby - manual,"https://earth.google.com/web/@33.831665,-84.339169,0a,150d,35y"
dc_0c28c42b4cce,LCUB Data Center,35.840815,-84.265703,35.841667,-84.265136,107.5,0,False,no building nearby - manual,"https://earth.google.com/web/@35.840815,-84.265703,0a,150d,35y"
dc_50d4b0564dea,QX.Net Lexington,38.047912,-84.499563,38.048687,-84.499191,92.0,0,False,no building nearby - manual,"https://earth.google.com/web/@38.047912,-84.499563,0a,150d,35y"
dc_6c4275f57202,CyrusOne Cincinnati-Hamilton CIN4,39.3852721,-84.5662844,39.384369,-84.567317,134.1,0,False,no building nearby - manual,"https://earth.google.com/web/@39.3852721,-84.5662844,0a,150d,35y"
dc_6d10a61e19f2,Cincinnatti Bell - West 7th Street,39.102789,-84.517261,39.102193,-84.517427,67.7,0,False,SUGGESTION - confirm on Google Earth,"https://earth.google.com/web/@39.102789,-84.517261,0a,150d,35y"
dc_c076f88bdf99,CyrusOne Cincinnati 7th St,39.102771,-84.517262,39.102193,-84.517427,65.8,0,False,SUGGESTION - confirm on Google Earth,"https://earth.google.com/web/@39.102771,-84.517262,0a,150d,35y"
dc_a29f6258e847,CyrusOne Lebanon,39.389053,-84.220796,39.388745,-84.22085,34.6,2,True,SUGGESTION - confirm on Google Earth,"https://earth.google.com/web/@39.389053,-84.220796,0a,150d,35y"
dc_5f2a61722af9,CyrusOne Hamilton,39.386313,-84.567161,39.384369,-84.567317,216.3,0,False,no building nearby - manual,"https://earth.google.com/web/@39.386313,-84.567161,0a,150d,35y"
dc_ce8075567251,Flexential - Cincinnati (CIN1/2),39.316449,-84.450172,39.317051,-84.450074,67.3,0,False,SUGGESTION - confirm on Google Earth,"https://earth.google.com/web/@39.316449,-84.450172,0a,150d,35y"
dc_97babf80923b,Encore Technologies MSB1,39.616231,-84.229032,39.614476,-84.229667,202.4,0,False,no building nearby - manual,"https://earth.google.com/web/@39.616231,-84.229032,0a,150d,35y"
dc_e5cafa592f46,QTS Atlanta-Suwanee (SUW1),34.035431,-84.06101,34.034466,-84.062045,143.5,0,False,no building nearby - manual,"https://earth.google.com/web/@34.035431,-84.06101,0a,150d,35y"
dc_d53cb59c41ed,Peace Communications  KNX1,35.965586,-83.921438,35.966152,-83.920734,89.3,0,False,no building nearby - manual,"https://earth.google.com/web/@35.965586,-83.921438,0a,150d,35y"
dc_c4344c114a1e,Meta Stanton Springs Data Center,33.6004683,-83.7003581,33.600774,-83.698537,172.4,0,False,no building nearby - manual,"https://earth.google.com/web/@33.6004683,-83.7003581,0a,150d,35y"
dc_50cfa203d920,Amplex DC0,41.481022,-83.451231,41.480823,-83.452609,117.2,0,False,no building nearby - manual,"https://earth.google.com/web/@41.481022,-83.451231,0a,150d,35y"
dc_92574408e089,Synergy Fiber,42.241804,-83.737636,42.240813,-83.737792,110.8,0,False,no building nearby - manual,"https://earth.google.com/web/@42.241804,-83.737636,0a,150d,35y"
dc_f9b72dde45d8,ManagedWay SFJ2,42.467029,-83.234962,42.467259,-83.23527,36.0,1,False,SUGGESTION - confirm on Google Earth,"https://earth.google.com/web/@42.467029,-83.234962,0a,150d,35y"
dc_183f43223ec1,123.NET - DC2 - 24275 Northwestern Hwy.,42.467035,-83.235001,42.467259,-83.23527,33.3,1,False,SUGGESTION - confirm on Google Earth,"https://earth.google.com/web/@42.467035,-83.235001,0a,150d,35y"
dc_4ca5071fffcd,123.NET - DC3 - 24245 Northwestern Hwy.,42.466862,-83.234666,42.46661,-83.234314,40.3,1,False,SUGGESTION - confirm on Google Earth,"https://earth.google.com/web/@42.466862,-83.234666,0a,150d,35y"
dc_a288f31a82ee,East Kentucky Network Data Center,37.596989,-82.68065,37.597913,-82.680962,106.2,0,False,no building nearby - manual,"https://earth.google.com/web/@37.596989,-82.68065,0a,150d,35y"
dc_2f483ca1c248,"Google Lockbourne, OH",39.8484523,-82.9963927,39.847823,-82.997155,95.5,0,False,no building nearby - manual,"https://earth.google.com/web/@39.8484523,-82.9963927,0a,150d,35y"
dc_d02a64f6db73,Amazon New Albany: Jug and Beach Road,40.0990767,-82.7515054,40.097638,-82.752403,177.2,0,False,no building nearby - manual,"https://earth.google.com/web/@40.0990767,-82.7515054,0a,150d,35y"
dc_fd11a1f44708,180 E Broad St.,39.963183,-82.995994,39.963769,-82.995967,65.2,0,False,SUGGESTION - confirm on Google Earth,"https://earth.google.com/web/@39.963183,-82.995994,0a,150d,35y"
dc_81bdea6e864f,WOW! Business (Columbus Datacenter),39.967631,-82.995434,39.967711,-82.994828,52.6,1,False,SUGGESTION - confirm on Google Earth,"https://earth.google.com/web/@39.967631,-82.995434,0a,150d,35y"
dc_ca9d0ab87d83,Continental Plaza,39.963223,-82.995858,39.963769,-82.995967,61.4,0,False,SUGGESTION - confirm on Google Earth,"https://earth.google.com/web/@39.963223,-82.995858,0a,150d,35y"
dc_88c1a3921ea5,Racksquared Data Centers,39.966878,-82.992615,39.96683,-82.992103,44.1,2,True,SUGGESTION - confirm on Google Earth,"https://earth.google.com/web/@39.966878,-82.992615,0a,150d,35y"
dc_e8eb1c059cb6,CENTRA CMH01 - Columbus Ohio (180 E Broad),39.963183,-82.995994,39.963769,-82.995967,65.2,0,False,SUGGESTION - confirm on Google Earth,"https://earth.google.com/web/@39.963183,-82.995994,0a,150d,35y"
dc_50e4626e32e8,WOW! Business (Tampa Datacenter),27.947729,-82.459331,27.948578,-82.459595,97.6,0,False,no building nearby - manual,"https://earth.google.com/web/@27.947729,-82.459331,0a,150d,35y"
dc_cda90edc406a,The Franklin Exchange Tampa,27.949606,-82.458393,27.949109,-82.457091,139.5,0,False,no building nearby - manual,"https://earth.google.com/web/@27.949606,-82.458393,0a,150d,35y"
dc_caf0dd24a4a3,Hivelocity,28.01989,-82.52466,28.0202,-82.52638,172.6,0,False,no building nearby - manual,"https://earth.google.com/web/@28.01989,-82.52466,0a,150d,35y"
dc_e87f67f21f0c,H5 Data Centers Tampa,27.949508,-82.458396,27.949109,-82.457091,135.8,0,False,no building nearby - manual,"https://earth.google.com/web/@27.949508,-82.458396,0a,150d,35y"
dc_6ab52053e3ec,Centersquare Tampa (TPA1),27.945324,-82.351199,27.945429,-82.350852,36.0,1,False,SUGGESTION - confirm on Google Earth,"https://earth.google.com/web/@27.945324,-82.351199,0a,150d,35y"
dc_5998861d7b2d,Flexential - Tampa/West (TPA01/02),28.036955,-82.540938,28.037371,-82.540327,75.7,0,False,SUGGESTION - confirm on Google Earth,"https://earth.google.com/web/@28.036955,-82.540938,0a,150d,35y"
dc_307abcbb36ae,Frontier Tampa Main Tandem Office,27.950136,-82.456447,27.949606,-82.456598,60.5,0,False,SUGGESTION - confirm on Google Earth,"https://earth.google.com/web/@27.950136,-82.456447,0a,150d,35y"
dc_6c5747e8ee21,Cogent Tampa,27.947747,-82.459056,27.948578,-82.459595,106.2,0,False,no building nearby - manual,"https://earth.google.com/web/@27.947747,-82.459056,0a,150d,35y"
dc_770feb7b2cec,Carrier Core - Tampa,27.949606,-82.458393,27.949109,-82.457091,139.5,0,False,no building nearby - manual,"https://earth.google.com/web/@27.949606,-82.458393,0a,150d,35y"
dc_e0deb5a5797a,"DartPoints Spartanburg, SC - SPA1",34.996536,-82.033518,34.996547,-82.034835,120.2,0,False,no building nearby - manual,"https://earth.google.com/web/@34.996536,-82.033518,0a,150d,35y"
dc_0f72f668a2e1,T5@Cleveland,41.440122,-81.80254,41.439782,-81.80434,155.1,0,False,no building nearby - manual,"https://earth.google.com/web/@41.440122,-81.80254,0a,150d,35y"
dc_90a6d53a922b,Citynet Charleston,38.353138,-81.640921,38.353598,-81.641695,84.8,0,False,no building nearby - manual,"https://earth.google.com/web/@38.353138,-81.640921,0a,150d,35y"
dc_22c92b609884,SecureNet DC1,38.366315,-81.695218,38.366111,-81.695571,38.3,7,True,SUGGESTION - confirm on Google Earth,"https://earth.google.com/web/@38.366315,-81.695218,0a,150d,35y"
dc_f0251b9c4cc6,Fusion - Cleveland,41.501689,-81.680462,41.501527,-81.679708,65.5,0,False,SUGGESTION - confirm on Google Earth,"https://earth.google.com/web/@41.501689,-81.680462,0a,150d,35y"
dc_4c67f29cb099,Tech Mahindra Cleveland,41.49786,-81.693321,41.497203,-81.694031,94.1,0,False,no building nearby - manual,"https://earth.google.com/web/@41.49786,-81.693321,0a,150d,35y"
dc_1b4424f5d12f,DataBank Cleveland (CLE1),41.501022,-81.684102,41.500637,-81.684089,42.8,1,False,SUGGESTION - confirm on Google Earth,"https://earth.google.com/web/@41.501022,-81.684102,0a,150d,35y"
dc_b882f44c45b0,BlueBridge Networks | Downtown Cleveland,41.500806,-81.683699,41.500637,-81.684089,37.5,1,False,SUGGESTION - confirm on Google Earth,"https://earth.google.com/web/@41.500806,-81.683699,0a,150d,35y"
dc_5201629a2721,BlueBridge Networks |  Mayfield Heights Data Center,41.505827,-81.467108,41.504924,-81.468286,140.5,0,False,no building nearby - manual,"https://earth.google.com/web/@41.505827,-81.467108,0a,150d,35y"
dc_960d4026cc0b,Cogent Cleveland,41.501689,-81.680462,41.501527,-81.679708,65.5,0,False,SUGGESTION - confirm on Google Earth,"https://earth.google.com/web/@41.501689,-81.680462,0a,150d,35y"
dc_cdfdfa748122,Colo Solutions Downtown Orlando,28.534496,-81.379455,28.533885,-81.38029,106.1,0,False,no building nearby - manual,"https://earth.google.com/web/@28.534496,-81.379455,0a,150d,35y"
dc_3a88e754c921,QTS Charlotte (CTL1),35.035376,-81.104511,35.036154,-81.104561,86.4,0,False,no building nearby - manual,"https://earth.google.com/web/@35.035376,-81.104511,0a,150d,35y"
dc_4aca16af087d,SD Data Center,28.259162,-80.694858,28.260825,-80.694066,200.0,0,False,no building nearby - manual,"https://earth.google.com/web/@28.259162,-80.694858,0a,150d,35y"
dc_60f5bc675bc3,Digital Realty CLT (125 N Myers St),35.222057,-80.8353,35.222376,-80.834783,58.9,1,False,SUGGESTION - confirm on Google Earth,"https://earth.google.com/web/@35.222057,-80.8353,0a,150d,35y"
dc_7dd700f2302b,Digital Realty CLT (113 N Myers St),35.221885,-80.835538,35.222376,-80.834783,87.7,0,False,no building nearby - manual,"https://earth.google.com/web/@35.221885,-80.835538,0a,150d,35y"
dc_b3c70d75bf1a,CENTRA CLT01 - Charlotte NC (701 E Trade),35.222101,-80.836747,35.222376,-80.834783,181.4,0,False,no building nearby - manual,"https://earth.google.com/web/@35.222101,-80.836747,0a,150d,35y"
dc_cbc49ed43b20,TierPoint Charlotte - North Myers,35.222114,-80.835313,35.222376,-80.834783,56.3,1,False,SUGGESTION - confirm on Google Earth,"https://earth.google.com/web/@35.222114,-80.835313,0a,150d,35y"
dc_d42b2dbe3bc5,Cogent Charlotte,35.222097,-80.836767,35.222376,-80.834783,183.2,0,False,no building nearby - manual,"https://earth.google.com/web/@35.222097,-80.836767,0a,150d,35y"
dc_ca7d33cf6c31,Segra Kannapolis,35.504805,-80.62259,35.506192,-80.622282,156.4,0,False,no building nearby - manual,"https://earth.google.com/web/@35.504805,-80.62259,0a,150d,35y"
dc_20728e9abe29,Telefonica KeyCenter,25.796769,-80.379841,25.795226,-80.379819,171.0,0,False,no building nearby - manual,"https://earth.google.com/web/@25.796769,-80.379841,0a,150d,35y"
dc_faa6dba0bad0,"Equinix MI1 - Miami, NOTA",25.782648,-80.193157,25.783082,-80.192717,65.3,0,False,SUGGESTION - confirm on Google Earth,"https://earth.google.com/web/@25.782648,-80.193157,0a,150d,35y"
dc_d6ee1c60c7cf,Equinix MI2 - Miami,25.775869,-80.19313,25.774935,-80.19266,113.7,0,False,no building nearby - manual,"https://earth.google.com/web/@25.775869,-80.19313,0a,150d,35y"
dc_bed5d7adeebd,ColoHouse Miami,25.775811,-80.192959,25.774935,-80.19266,101.6,0,False,no building nearby - manual,"https://earth.google.com/web/@25.775811,-80.192959,0a,150d,35y"
dc_7d017b08a124,DataBank Miami (MIA1),25.775811,-80.192959,25.774935,-80.19266,101.6,0,False,no building nearby - manual,"https://earth.google.com/web/@25.775811,-80.192959,0a,150d,35y"
dc_c38d391736df,Digital Realty MIA (36 NE 2nd St),25.775811,-80.192959,25.774935,-80.19266,101.6,0,False,no building nearby - manual,"https://earth.google.com/web/@25.775811,-80.192959,0a,150d,35y"
dc_fdb3d62969dc,South Reach Networks,25.775869,-80.193129,25.774935,-80.19266,113.7,0,False,no building nearby - manual,"https://earth.google.com/web/@25.775869,-80.193129,0a,150d,35y"
dc_ec7f3d892327,MDC1 - 36 NE 2nd St,25.775825,-80.192808,25.774935,-80.19266,99.7,0,False,no building nearby - manual,"https://earth.google.com/web/@25.775825,-80.192808,0a,150d,35y"
dc_9ce7e28cd5d6,IM Datacenter,25.775811,-80.192959,25.774935,-80.19266,101.6,0,False,no building nearby - manual,"https://earth.google.com/web/@25.775811,-80.192959,0a,150d,35y"
dc_7284cc251f4e,Peer-Point Colocation,25.767492,-80.191037,25.767292,-80.190704,40.1,2,True,SUGGESTION - confirm on Google Earth,"https://earth.google.com/web/@25.767492,-80.191037,0a,150d,35y"
dc_8d1d5560f657,Navégalo Data Center Miami (MI1),25.775869,-80.19313,25.774935,-80.19266,113.7,0,False,no building nearby - manual,"https://earth.google.com/web/@25.775869,-80.19313,0a,150d,35y"
dc_f0eb87bf240c,DNSnetworks IDC4,25.775869,-80.19313,25.774935,-80.19266,113.7,0,False,no building nearby - manual,"https://earth.google.com/web/@25.775869,-80.19313,0a,150d,35y"
dc_ce0c5992cc9b,3HCloud - MIA-1,25.775702,-80.193056,25.774935,-80.19266,93.8,0,False,no building nearby - manual,"https://earth.google.com/web/@25.775702,-80.193056,0a,150d,35y"
dc_2847d8aab868,3HCloud - MIA-2,25.782365,-80.19313,25.783082,-80.192717,89.6,0,False,no building nearby - manual,"https://earth.google.com/web/@25.782365,-80.19313,0a,150d,35y"
dc_471ff8a35a44,iM Critical Miami,25.848356,-80.194926,25.848992,-80.194779,71.9,0,False,SUGGESTION - confirm on Google Earth,"https://earth.google.com/web/@25.848356,-80.194926,0a,150d,35y"
dc_9bfe6733e707,UPX Miami,25.932848,-80.121136,25.932951,-80.122246,111.8,0,False,no building nearby - manual,"https://earth.google.com/web/@25.932848,-80.121136,0a,150d,35y"
dc_4f54bffb8d68,"Equinix MI3 - Miami, Boca Raton",26.387989,-80.108267,26.387522,-80.109249,110.9,0,False,no building nearby - manual,"https://earth.google.com/web/@26.387989,-80.108267,0a,150d,35y"
dc_0ab33847b79e,Cogent Boca Raton,26.392805,-80.109732,26.39335,-80.110985,138.9,0,False,no building nearby - manual,"https://earth.google.com/web/@26.392805,-80.109732,0a,150d,35y"
dc_d6d98ef855f4,"DartPoints Charleston, SC - CHS1",32.964888,-80.101283,32.965509,-80.102431,127.5,0,False,no building nearby - manual,"https://earth.google.com/web/@32.964888,-80.101283,0a,150d,35y"
dc_5e87bc712d75,Crown Castle Pittsburgh (Allegheny Center Mall),40.451062,-80.005186,40.452227,-80.004843,132.6,0,False,no building nearby - manual,"https://earth.google.com/web/@40.451062,-80.005186,0a,150d,35y"
dc_584854729387,EdgeConneX Pittsburgh (EDCPIT01),40.452221,-80.041515,40.451635,-80.041621,65.7,0,False,SUGGESTION - confirm on Google Earth,"https://earth.google.com/web/@40.452221,-80.041515,0a,150d,35y"
dc_c6a7708cb1fd,DataBank Pittsburgh (PIT1),40.451062,-80.005186,40.452227,-80.004843,132.6,0,False,no building nearby - manual,"https://earth.google.com/web/@40.451062,-80.005186,0a,150d,35y"
dc_e7e81b57c81b,DQE Communications (Downtown Pittsburgh),40.438903,-80.000547,40.438877,-79.998877,141.7,0,False,no building nearby - manual,"https://earth.google.com/web/@40.438903,-80.000547,0a,150d,35y"
dc_9a27ff212d93,DQE Communications (Allegheny Center Mall),40.451062,-80.005186,40.452227,-80.004843,132.6,0,False,no building nearby - manual,"https://earth.google.com/web/@40.451062,-80.005186,0a,150d,35y"
dc_9d41992d9e6f,Expedient Pittsburgh - Nova Place,40.451847,-80.005856,40.452227,-80.004843,95.7,0,False,no building nearby - manual,"https://earth.google.com/web/@40.451847,-80.005856,0a,150d,35y"
dc_fb81ab777b05,DC BLOX MYR1 - DCBLOX Myrtle Beach,33.674793,-78.942594,33.67314,-78.943133,190.0,0,False,no building nearby - manual,"https://earth.google.com/web/@33.674793,-78.942594,0a,150d,35y"
dc_55f5c1098183,CyrusOne NC-1,35.936339,-78.879943,35.937146,-78.880325,96.0,0,False,no building nearby - manual,"https://earth.google.com/web/@35.936339,-78.879943,0a,150d,35y"
dc_854a45524688,Victory Technology Center,42.82652,-78.821501,42.826869,-78.820598,83.4,0,False,no building nearby - manual,"https://earth.google.com/web/@42.82652,-78.821501,0a,150d,35y"
dc_763d1075346e,H5 Data Centers Buffalo I,43.167553,-78.751731,43.168143,-78.752385,84.5,0,False,no building nearby - manual,"https://earth.google.com/web/@43.167553,-78.751731,0a,150d,35y"
dc_f52600c4827b,H5 Data Centers Buffalo II,43.169757,-78.748743,43.168351,-78.747882,171.2,0,False,no building nearby - manual,"https://earth.google.com/web/@43.169757,-78.748743,0a,150d,35y"
dc_3c709b4835c3,Microsoft Boydton Data Center,36.6859202,-78.3764101,36.685564,-78.376489,40.2,2,True,SUGGESTION - confirm on Google Earth,"https://earth.google.com/web/@36.6859202,-78.3764101,0a,150d,35y"
dc_ea75373be693,Pixel Factory Data Center,37.698641,-77.436436,37.698232,-77.436714,51.6,1,False,SUGGESTION - confirm on Google Earth,"https://earth.google.com/web/@37.698641,-77.436436,0a,150d,35y"
dc_668e8cfeb9b1,EdgeConneX Richmond (EDCRIC01),37.638915,-77.467703,37.639513,-77.467085,85.9,0,False,no building nearby - manual,"https://earth.google.com/web/@37.638915,-77.467703,0a,150d,35y"
dc_0beb79d0e77c,Google Data Center,38.943321,-77.5261637,38.943829,-77.525858,62.3,0,False,SUGGESTION - confirm on Google Earth,"https://earth.google.com/web/@38.943321,-77.5261637,0a,150d,35y"
dc_b8ec7b743908,Arcola Tech Park,38.9492681,-77.5556264,38.949333,-77.554906,62.9,0,False,SUGGESTION - confirm on Google Earth,"https://earth.google.com/web/@38.9492681,-77.5556264,0a,150d,35y"
dc_1e56ff5b5b31,EvoSwitch WDC1,38.747494,-77.531749,38.747639,-77.531303,42.0,2,True,SUGGESTION - confirm on Google Earth,"https://earth.google.com/web/@38.747494,-77.531749,0a,150d,35y"
dc_fa631ad5684c,Centersquare Northern Virginia (IAD3),38.980226,-77.443486,38.979837,-77.44236,106.7,0,False,no building nearby - manual,"https://earth.google.com/web/@38.980226,-77.443486,0a,150d,35y"
dc_d0750011f8b2,Digital Realty GNV (8217 Linton Hall),38.775892,-77.596103,38.775442,-77.596739,74.5,0,False,SUGGESTION - confirm on Google Earth,"https://earth.google.com/web/@38.775892,-77.596103,0a,150d,35y"
dc_c2fe624e0003,COPT DC-6,38.747494,-77.531749,38.747639,-77.531303,42.0,2,True,SUGGESTION - confirm on Google Earth,"https://earth.google.com/web/@38.747494,-77.531749,0a,150d,35y"
dc_3afc967d9d1a,365 Data Centers Herndon (VA1),38.934436,-77.428691,38.932772,-77.427496,211.8,0,False,no building nearby - manual,"https://earth.google.com/web/@38.934436,-77.428691,0a,150d,35y"
dc_ea29c9c9ca57,Iron Mountain Data Center - Manassas (VA-2),38.770228,-77.539018,38.770485,-77.542512,305.0,0,False,no building nearby - manual,"https://earth.google.com/web/@38.770228,-77.539018,0a,150d,35y"
dc_1c5529fb9a1a,QTS Manassas (MAN1),38.754611,-77.51326,38.75485,-77.512321,85.9,0,False,no building nearby - manual,"https://earth.google.com/web/@38.754611,-77.51326,0a,150d,35y"
dc_00e628ce6044,True North Data Centers,39.0436134,-77.5372623,39.042746,-77.537566,99.8,0,False,no building nearby - manual,"https://earth.google.com/web/@39.0436134,-77.5372623,0a,150d,35y"
dc_36754c52f050,"Equinix DC1-DC15,DC21-DC22 - Ashburn",39.016363,-77.459023,39.014964,-77.45879,156.6,0,False,no building nearby - manual,"https://earth.google.com/web/@39.016363,-77.459023,0a,150d,35y"
dc_528384267832,Centersquare Northern Virginia (IAD1-C/E),39.025283,-77.413213,39.024752,-77.412204,105.4,0,False,no building nearby - manual,"https://earth.google.com/web/@39.025283,-77.413213,0a,150d,35y"
dc_374a8dbdef04,CyrusOne Sterling V,39.027202,-77.435827,39.026027,-77.434225,190.4,0,False,no building nearby - manual,"https://earth.google.com/web/@39.027202,-77.435827,0a,150d,35y"
dc_73878c244253,Digital Realty IAD (44100 Digital Loudoun),39.001795,-77.47841,39.001532,-77.479377,88.7,0,False,no building nearby - manual,"https://earth.google.com/web/@39.001795,-77.47841,0a,150d,35y"
dc_bdff878de982,Digital Realty IAD (44060 Digital Loudoun),39.001795,-77.47841,39.001532,-77.479377,88.7,0,False,no building nearby - manual,"https://earth.google.com/web/@39.001795,-77.47841,0a,150d,35y"
dc_33e94a939c1b,Digital Realty IAD (44490 Chilum),39.020901,-77.459831,39.01976,-77.460053,128.1,0,False,no building nearby - manual,"https://earth.google.com/web/@39.020901,-77.459831,0a,150d,35y"
dc_4ee36820cdbd,QTS Ashburn (ASH1),39.000373,-77.448809,39.000931,-77.449453,83.3,0,False,no building nearby - manual,"https://earth.google.com/web/@39.000373,-77.448809,0a,150d,35y"
dc_cd5551c92afa,mindSHIFT Ashburn,39.016363,-77.459022,39.014964,-77.45879,156.6,0,False,no building nearby - manual,"https://earth.google.com/web/@39.016363,-77.459022,0a,150d,35y"
dc_70f64e34b56c,QTS Ashburn (ASH3),39.000915,-77.475168,39.000219,-77.475097,77.5,0,False,SUGGESTION - confirm on Google Earth,"https://earth.google.com/web/@39.000915,-77.475168,0a,150d,35y"
dc_ed562b27f502,RC Solutions,39.016494,-77.459262,39.015528,-77.460341,142.2,0,False,no building nearby - manual,"https://earth.google.com/web/@39.016494,-77.459262,0a,150d,35y"
dc_f7435c1bda22,Gafachi 1 West Main Rochester,43.155428,-77.612713,43.155034,-77.612955,48.0,2,True,SUGGESTION - confirm on Google Earth,"https://earth.google.com/web/@43.155428,-77.612713,0a,150d,35y"
dc_2600bf81e31a,QTS Richmond (RIC1),37.488073,-77.244177,37.486613,-77.246088,234.2,0,False,no building nearby - manual,"https://earth.google.com/web/@37.488073,-77.244177,0a,150d,35y"
dc_80b3c168cede,QTS Richmond - (RIC5),37.502016,-77.260573,37.503522,-77.260864,169.1,0,False,no building nearby - manual,"https://earth.google.com/web/@37.502016,-77.260573,0a,150d,35y"
dc_0cfbf292e004,"Equinix DC8 - Ashburn, Vienna",38.931419,-77.238951,38.930633,-77.239797,114.0,0,False,no building nearby - manual,"https://earth.google.com/web/@38.931419,-77.238951,0a,150d,35y"
dc_f762d99d6b4e,Level(3) Herndon,38.964641,-77.382947,38.964657,-77.383444,43.1,2,True,SUGGESTION - confirm on Google Earth,"https://earth.google.com/web/@38.964641,-77.382947,0a,150d,35y"
dc_883d27078b2e,Level(3) McLean,38.920062,-77.212126,38.920307,-77.211472,62.9,0,False,SUGGESTION - confirm on Google Earth,"https://earth.google.com/web/@38.920062,-77.212126,0a,150d,35y"
dc_577d0763b239,CoreSite - Reston (VA2),38.948974,-77.364545,38.949378,-77.363361,112.0,0,False,no building nearby - manual,"https://earth.google.com/web/@38.948974,-77.364545,0a,150d,35y"
dc_0ef9a41e7d70,DataBank McLean (IAD2),38.919781,-77.215636,38.919952,-77.214335,114.4,0,False,no building nearby - manual,"https://earth.google.com/web/@38.919781,-77.215636,0a,150d,35y"
dc_f462f5b23353,"Atlantech Online - Silver Spring, MD",38.993843,-77.027705,38.993452,-77.028498,81.3,0,False,no building nearby - manual,"https://earth.google.com/web/@38.993843,-77.027705,0a,150d,35y"
dc_bc06006b2111,Zayo Baltimore - 111 Market Pl,39.287414,-76.606104,39.286014,-76.605652,160.3,0,False,no building nearby - manual,"https://earth.google.com/web/@39.287414,-76.606104,0a,150d,35y"
dc_4c9033aaa0e5,AiNET WDC11,39.101379,-76.847997,39.101471,-76.848506,45.2,1,False,SUGGESTION - confirm on Google Earth,"https://earth.google.com/web/@39.101379,-76.847997,0a,150d,35y"
dc_dd717d06043b,AiNET MD-300L,39.291768,-76.620065,39.291931,-76.619173,79.1,0,False,SUGGESTION - confirm on Google Earth,"https://earth.google.com/web/@39.291768,-76.620065,0a,150d,35y"
dc_d7293cd91449,AiNET MD-790R,39.13848,-76.605528,39.135426,-76.606539,350.2,0,False,no building nearby - manual,"https://earth.google.com/web/@39.13848,-76.605528,0a,150d,35y"
dc_1a15871c8912,TierPoint Baltimore – BWI,39.213809,-76.679891,39.212144,-76.682067,263.6,0,False,no building nearby - manual,"https://earth.google.com/web/@39.213809,-76.679891,0a,150d,35y"
dc_ffc36ba64dc4,TunBroker Baltimore,39.213809,-76.679891,39.212144,-76.682067,263.6,0,False,no building nearby - manual,"https://earth.google.com/web/@39.213809,-76.679891,0a,150d,35y"
dc_2457668a558c,Globalinx Virginia Beach CLS,36.784195,-76.00859,36.78484,-76.007699,107.0,0,False,no building nearby - manual,"https://earth.google.com/web/@36.784195,-76.00859,0a,150d,35y"
dc_5c4333eac436,Direct LTx Reading,40.381319,-75.982026,40.380978,-75.983173,104.5,0,False,no building nearby - manual,"https://earth.google.com/web/@40.381319,-75.982026,0a,150d,35y"
dc_c37802ecd331,Northland Communications - Syracuse,43.043813,-76.152378,43.043143,-76.152352,74.5,0,False,SUGGESTION - confirm on Google Earth,"https://earth.google.com/web/@43.043813,-76.152378,0a,150d,35y"
dc_d86fdc4e8f2f,Lightboard ★ Western NY,43.050221,-76.150348,43.050712,-76.150426,54.9,1,False,SUGGESTION - confirm on Google Earth,"https://earth.google.com/web/@43.050221,-76.150348,0a,150d,35y"
dc_fed2cce6b6c2,IPR Wilmington CCC,39.747859,-75.546753,39.748171,-75.547321,59.8,1,False,SUGGESTION - confirm on Google Earth,"https://earth.google.com/web/@39.747859,-75.546753,0a,150d,35y"
dc_eb804c8b0e43,Equinix PH1 - Philadelphia,39.959668,-75.161377,39.959257,-75.161511,47.1,1,False,SUGGESTION - confirm on Google Earth,"https://earth.google.com/web/@39.959668,-75.161377,0a,150d,35y"
dc_b8a06f212731,Netrality Philadelphia - 401 N Broad,39.959889,-75.161752,39.959257,-75.161511,73.2,0,False,SUGGESTION - confirm on Google Earth,"https://earth.google.com/web/@39.959889,-75.161752,0a,150d,35y"
dc_09200711b7ac,833 Chestnut Street,39.949905,-75.154973,39.949413,-75.154712,59.0,1,False,SUGGESTION - confirm on Google Earth,"https://earth.google.com/web/@39.949905,-75.154973,0a,150d,35y"
dc_854b5acb373f,Crown Castle Philadelphia (1309 Noble),39.960652,-75.160469,39.960405,-75.159427,93.1,0,False,no building nearby - manual,"https://earth.google.com/web/@39.960652,-75.160469,0a,150d,35y"
dc_110d4d59e055,QTS Piscataway (PNJ1),40.556905,-74.484735,40.557576,-74.483903,102.6,0,False,no building nearby - manual,"https://earth.google.com/web/@40.556905,-74.484735,0a,150d,35y"
dc_96c5b654ee78,Iron Mountain Data Center - New Jersey (NJE-1),40.521083,-74.347384,40.519543,-74.347762,173.9,0,False,no building nearby - manual,"https://earth.google.com/web/@40.521083,-74.347384,0a,150d,35y"
dc_c7be2966c16a,Centersquare New Jersey (EWR3),40.554537,-74.4569,40.553791,-74.457068,84.0,0,False,no building nearby - manual,"https://earth.google.com/web/@40.554537,-74.4569,0a,150d,35y"
dc_6c5c3de9236e,Digital Realty EWR (3 Corporate Pl),40.554537,-74.4569,40.553791,-74.457068,84.0,0,False,no building nearby - manual,"https://earth.google.com/web/@40.554537,-74.4569,0a,150d,35y"
dc_3c15e6d243fd,Anexio NJ1,40.557342,-74.484434,40.557576,-74.483903,51.9,1,False,SUGGESTION - confirm on Google Earth,"https://earth.google.com/web/@40.557342,-74.484434,0a,150d,35y"
dc_9277151d2171,ColoCrossing NJ1,40.557342,-74.484434,40.557576,-74.483903,51.9,1,False,SUGGESTION - confirm on Google Earth,"https://earth.google.com/web/@40.557342,-74.484434,0a,150d,35y"
dc_ec4c14283b81,Wnet Telecom USA,40.59761,-73.995101,40.598439,-73.995881,113.3,0,False,no building nearby - manual,"https://earth.google.com/web/@40.59761,-73.995101,0a,150d,35y"
dc_2839fc2c5212,Looking Glass Networks NYC Node,40.726019,-74.00536,40.727544,-74.005787,173.1,0,False,no building nearby - manual,"https://earth.google.com/web/@40.726019,-74.00536,0a,150d,35y"
dc_f9308489536b,Newport Financial Center,40.726597,-74.033401,40.726313,-74.033752,43.3,2,True,SUGGESTION - confirm on Google Earth,"https://earth.google.com/web/@40.726597,-74.033401,0a,150d,35y"
dc_5a62da9c3162,Level(3) New York,40.743136,-74.007652,40.743486,-74.006318,119.1,0,False,no building nearby - manual,"https://earth.google.com/web/@40.743136,-74.007652,0a,150d,35y"
dc_a26daee8f0b8,QTS Jersey City (JCY1),40.716892,-74.03382,40.716828,-74.034551,62.2,0,False,SUGGESTION - confirm on Google Earth,"https://earth.google.com/web/@40.716892,-74.03382,0a,150d,35y"
dc_e3f553271048,Telehouse - Teleport Center (New York),40.606231,-74.173722,40.604681,-74.175778,244.7,0,False,no building nearby - manual,"https://earth.google.com/web/@40.606231,-74.173722,0a,150d,35y"
dc_71b5b73fcac8,Telehouse - New York Chelsea,40.743209,-74.007954,40.743486,-74.006318,141.5,0,False,no building nearby - manual,"https://earth.google.com/web/@40.743209,-74.007954,0a,150d,35y"
dc_d64ac7105bee,"375 Pearl, Intergate.Manhattan",40.71096,-74.00142,40.710716,-74.000235,103.8,0,False,no building nearby - manual,"https://earth.google.com/web/@40.71096,-74.00142,0a,150d,35y"
dc_fd5d2f4c2f9e,NYI NY1 (100 William Street),40.708383,-74.007201,40.708149,-74.006847,39.7,2,True,SUGGESTION - confirm on Google Earth,"https://earth.google.com/web/@40.708383,-74.007201,0a,150d,35y"
dc_d26d3b37dc1a,Host Color,40.74463,-73.987667,40.745678,-73.987153,124.2,0,False,no building nearby - manual,"https://earth.google.com/web/@40.74463,-73.987667,0a,150d,35y"
dc_fa5618a8e380,H5 Data Centers New York,40.726868,-74.007703,40.726903,-74.007045,55.8,1,False,SUGGESTION - confirm on Google Earth,"https://earth.google.com/web/@40.726868,-74.007703,0a,150d,35y"
dc_7fabd1d8f84d,H5 Data Centers Secaucus (NJ01),40.784817,-74.076264,40.78518,-74.074889,122.9,0,False,no building nearby - manual,"https://earth.google.com/web/@40.784817,-74.076264,0a,150d,35y"
dc_667b43557d64,75 Broad Street,40.704687,-74.01123,40.705283,-74.011028,68.4,0,False,SUGGESTION - confirm on Google Earth,"https://earth.google.com/web/@40.704687,-74.01123,0a,150d,35y"
dc_90539e96965d,Cogent New York 1,40.705781,-74.013972,40.706183,-74.013647,52.4,1,False,SUGGESTION - confirm on Google Earth,"https://earth.google.com/web/@40.705781,-74.013972,0a,150d,35y"
dc_879b2f39f650,Digital Realty EWR (2 Peekay),40.830886,-74.125188,40.831184,-74.125493,41.9,1,False,SUGGESTION - confirm on Google Earth,"https://earth.google.com/web/@40.830886,-74.125188,0a,150d,35y"
dc_edee31226499,Metanet New York Data Center CHELSEA,40.74331,-74.007932,40.743486,-74.006318,137.7,0,False,no building nearby - manual,"https://earth.google.com/web/@40.74331,-74.007932,0a,150d,35y"
dc_19e8b4001ea2,Metanet New York Data Center Staten Island,40.603355,-74.181099,40.603474,-74.181414,29.8,1,False,SUGGESTION - confirm on Google Earth,"https://earth.google.com/web/@40.603355,-74.181099,0a,150d,35y"
dc_e8fdaabd81bd,Interphase Data Center New York II,40.74331,-74.007932,40.743486,-74.006318,137.7,0,False,no building nearby - manual,"https://earth.google.com/web/@40.74331,-74.007932,0a,150d,35y"
dc_058f35b988cf,375 Pearl Street,40.7108,-74.0012,40.710716,-74.000235,82.1,0,False,no building nearby - manual,"https://earth.google.com/web/@40.7108,-74.0012,0a,150d,35y"
dc_ec9f9b87e90e,TierPoint Hawthorne (fka Xand),41.088318,-73.815224,41.08726,-73.816174,142.1,0,False,no building nearby - manual,"https://earth.google.com/web/@41.088318,-73.815224,0a,150d,35y"
dc_3cd8837b3e4f,NYDC3 - 11 skyline dr,41.088241,-73.815348,41.08726,-73.816174,129.2,0,False,no building nearby - manual,"https://earth.google.com/web/@41.088241,-73.815348,0a,150d,35y"
dc_9a32e70d572f,Databank Orangeburg (LGA3),41.040063,-73.989975,41.040925,-73.990464,104.2,0,False,no building nearby - manual,"https://earth.google.com/web/@41.040063,-73.989975,0a,150d,35y"
dc_a48bd507b5ac,CyrusOne Wappingers Falls,41.599043,-73.882221,41.599623,-73.882159,64.6,0,False,SUGGESTION - confirm on Google Earth,"https://earth.google.com/web/@41.599043,-73.882221,0a,150d,35y"
dc_bce2a55a99d1,501 Franklin Ave,40.722759,-73.631821,40.722018,-73.631836,82.3,0,False,no building nearby - manual,"https://earth.google.com/web/@40.722759,-73.631821,0a,150d,35y"
dc_67ff6b9472eb,Evocative New York (JFK2),41.180558,-73.755109,41.178894,-73.754982,185.1,0,False,no building nearby - manual,"https://earth.google.com/web/@41.180558,-73.755109,0a,150d,35y"
dc_f0c152473863,Cloudpath CT19 (5 Landmark Sq),41.054701,-73.537277,41.055665,-73.536611,120.8,0,False,no building nearby - manual,"https://earth.google.com/web/@41.054701,-73.537277,0a,150d,35y"
dc_3129f2c900a6,Crown Castle White Plains (360 Hamilton),41.034715,-73.767108,41.038923,-73.764728,508.3,0,False,no building nearby - manual,"https://earth.google.com/web/@41.034715,-73.767108,0a,150d,35y"
dc_9ed1aea6df62,INOC Albany (80 State St),42.649364,-73.75268,42.649137,-73.753755,91.7,0,False,no building nearby - manual,"https://earth.google.com/web/@42.649364,-73.75268,0a,150d,35y"
dc_74a33a13576f,INOC Albany (11 North Pearl St),42.650018,-73.752061,42.650114,-73.751106,79.0,0,False,SUGGESTION - confirm on Google Earth,"https://earth.google.com/web/@42.650018,-73.752061,0a,150d,35y"
dc_d3a8a17157cf,TurnKey Internet - DR,42.649423,-73.752684,42.649137,-73.753755,93.4,0,False,no building nearby - manual,"https://earth.google.com/web/@42.649423,-73.752684,0a,150d,35y"
dc_7d3c86a321c9,Cogent Albany,42.649423,-73.752684,42.649137,-73.753755,93.4,0,False,no building nearby - manual,"https://earth.google.com/web/@42.649423,-73.752684,0a,150d,35y"
dc_022cedeff92c,Westelcom Networks Plattsburgh,44.696433,-73.452937,44.69555,-73.452629,101.1,0,False,no building nearby - manual,"https://earth.google.com/web/@44.696433,-73.452937,0a,150d,35y"
dc_a1a2d4c9b9b0,CyrusOne Norwalk,41.110989,-73.39827,41.110694,-73.398196,33.4,4,True,SUGGESTION - confirm on Google Earth,"https://earth.google.com/web/@41.110989,-73.39827,0a,150d,35y"
dc_41ca0ce0a509,HDC1 - 108 Bank St,41.554434,-73.041219,41.554388,-73.041858,53.5,1,False,SUGGESTION - confirm on Google Earth,"https://earth.google.com/web/@41.554434,-73.041219,0a,150d,35y"
dc_50e9c91a244c,TierPoint Waterbury,41.554434,-73.04122,41.554388,-73.041858,53.5,1,False,SUGGESTION - confirm on Google Earth,"https://earth.google.com/web/@41.554434,-73.04122,0a,150d,35y"
dc_8895a8adb317,SoVerNet Burlington,44.479557,-73.213218,44.479888,-73.214322,95.2,0,False,no building nearby - manual,"https://earth.google.com/web/@44.479557,-73.213218,0a,150d,35y"
dc_4290cc221459,Consolidated - 266 Main St.,44.476496,-73.208582,44.477039,-73.207753,89.4,0,False,no building nearby - manual,"https://earth.google.com/web/@44.476496,-73.208582,0a,150d,35y"
dc_882a55829541,Lightboard ★ Vermont,44.448637,-73.146839,44.449698,-73.14443,225.1,0,False,no building nearby - manual,"https://earth.google.com/web/@44.448637,-73.146839,0a,150d,35y"
dc_028c228e5604,Lumen West Haven,41.289812,-72.970174,41.290285,-72.970536,60.7,0,False,SUGGESTION - confirm on Google Earth,"https://earth.google.com/web/@41.289812,-72.970174,0a,150d,35y"
dc_0e25227f34f6,Lumen New Haven,41.299871,-72.926131,41.300465,-72.926433,70.7,0,False,SUGGESTION - confirm on Google Earth,"https://earth.google.com/web/@41.299871,-72.926131,0a,150d,35y"
dc_57096ce99736,Crown Castle Hartford (960 Main),41.768371,-72.672133,41.767955,-72.671416,75.4,0,False,SUGGESTION - confirm on Google Earth,"https://earth.google.com/web/@41.768371,-72.672133,0a,150d,35y"
dc_25ebcc8c51a4,Massachusetts Green High Performance Computing Center,42.202521,-72.607933,42.201167,-72.60828,153.1,0,False,no building nearby - manual,"https://earth.google.com/web/@42.202521,-72.607933,0a,150d,35y"
dc_0697d50df413,Crown Castle Providence (235 Promenade),41.828542,-71.41934,41.828466,-71.41869,54.6,1,False,SUGGESTION - confirm on Google Earth,"https://earth.google.com/web/@41.828542,-71.41934,0a,150d,35y"
dc_9641538f7308,Prov.net 935,41.81764,-71.423806,41.817521,-71.423455,32.0,3,True,SUGGESTION - confirm on Google Earth,"https://earth.google.com/web/@41.81764,-71.423806,0a,150d,35y"
dc_a7346f4ae373,ColoCenter.com - Manchester NH,42.971981,-71.468877,42.972167,-71.468123,64.9,0,False,SUGGESTION - confirm on Google Earth,"https://earth.google.com/web/@42.971981,-71.468877,0a,150d,35y"
dc_e22e8d10f87c,200 Quannapowitt Pkwy,42.520526,-71.084976,42.52266,-71.085332,238.8,0,False,no building nearby - manual,"https://earth.google.com/web/@42.520526,-71.084976,0a,150d,35y"
dc_5108e71bb3f6,"Equinix BO2 - Boston, Billerica",42.55167,-71.215669,42.552093,-71.21566,47.0,2,True,SUGGESTION - confirm on Google Earth,"https://earth.google.com/web/@42.55167,-71.215669,0a,150d,35y"
dc_5c57ba7c00e3,Centersquare Boston (BOS4-A),42.365768,-71.158084,42.366078,-71.15874,64.1,0,False,SUGGESTION - confirm on Google Earth,"https://earth.google.com/web/@42.365768,-71.158084,0a,150d,35y"
dc_df9ba61f4853,Hub Express System,42.375817,-71.080788,42.375555,-71.080402,43.1,1,False,SUGGESTION - confirm on Google Earth,"https://earth.google.com/web/@42.375817,-71.080788,0a,150d,35y"
dc_8e3b85f052e5,Markley Group Lowell,42.629897,-71.305788,42.629731,-71.306108,32.1,2,True,SUGGESTION - confirm on Google Earth,"https://earth.google.com/web/@42.629897,-71.305788,0a,150d,35y"
dc_a8fff910467b,FirstLight Regen Hut,43.658074,-70.29982,43.658197,-70.299582,23.6,4,True,SUGGESTION - confirm on Google Earth,"https://earth.google.com/web/@43.658074,-70.29982,0a,150d,35y"
dc_81e63f1a603e,Consolidated - 45 Forest Ave.,43.656009,-70.263803,43.655489,-70.263193,75.9,0,False,SUGGESTION - confirm on Google Earth,"https://earth.google.com/web/@43.656009,-70.263803,0a,150d,35y"
dc_9449ac8454ad,"CENTRA PWM1 - Portland, Maine (340 Cumberland)",43.6578,-70.261218,43.658099,-70.260269,83.4,0,False,no building nearby - manual,"https://earth.google.com/web/@43.6578,-70.261218,0a,150d,35y"
