facility_id,name,operator_company,status,coordinate_precision,coordinate_status,independent_building_verified,needs_human_check,latitude,longitude,suggested_lat,suggested_lon,dist_m,state,county,source_name
dc_9bb24f423687,CoreSite DC1,CoreSite,operational,building,on_osm_building_single_source,False,True,38.9028879,-77.0291491,,,,DC,District of Columbia,OpenStreetMap
dc_a6e2e1513613,Southwest Cyberport,,operational,building,on_osm_building_single_source,False,True,35.1032925,-106.5893487,,,,NM,Bernalillo,OpenStreetMap
dc_a686ad9e9a88,NocRoom Miami IT Services,,operational,building,on_osm_building_single_source,False,True,25.7915453,-80.3177484,,,,FL,Miami-Dade,OpenStreetMap
dc_6d263b15b250,NocRoom Miami IT Services,,operational,building,on_osm_building_single_source,False,True,25.6465617,-80.4234346,,,,FL,Miami-Dade,OpenStreetMap
dc_880a171377bb,Center for Computation & Technology (CCT),,operational,building,independently_confirmed_on_building,True,False,30.407446,-91.1725454,,,,LA,East Baton Rouge,OpenStreetMap
dc_537f282facb3,Google Fiber,Google,operational,building,on_osm_building_single_source,False,True,33.7715677,-84.3668585,,,,GA,Fulton,OpenStreetMap
dc_15be445c537f,Open Computing Facility,,operational,building,independently_confirmed_on_building,True,False,37.8698521,-122.2598231,,,,CA,Alameda,OpenStreetMap
dc_e54691f8993e,Lumos Networks,,operational,building,on_osm_building_single_source,False,True,37.415688,-79.1427063,,,,VA,Lynchburg,OpenStreetMap
dc_004d4bd391b5,Rack59 Data Center,,operational,building,on_osm_building_single_source,False,True,35.4672049,-97.6497453,,,,OK,Oklahoma,OpenStreetMap
dc_c15c28bd70c1,Oso Grande,Oso Grande,operational,building,independently_confirmed_on_building,True,False,35.0925015,-106.6536712,,,,NM,Bernalillo,OpenStreetMap
dc_c2c582121fae,Morgan Wireless,,operational,building,independently_confirmed_on_building,True,False,39.6309851,-78.2253196,,,,WV,Morgan,OpenStreetMap
dc_6324e54cb1f3,VIRTBIZ,,operational,building,independently_confirmed_on_building,True,False,32.7825463,-96.7828145,,,,TX,Dallas,OpenStreetMap
dc_94697aa66760,FirstLight Data Center,FirstLight,operational,building,on_osm_building_single_source,False,True,43.6578388,-70.2613785,,,,ME,Cumberland,OpenStreetMap
dc_72d8cb06afd7,Learning GIS!,,operational,building,independently_confirmed_on_building,True,False,40.42179,-86.9141546,,,,IN,Tippecanoe,OpenStreetMap
dc_ba3a04b0acb7,Agricultural and Biological Engineering,,operational,building,independently_confirmed_on_building,True,False,40.4218543,-86.9165454,,,,IN,Tippecanoe,OpenStreetMap
dc_eef3ba94431e,Windstream Communications,,operational,building,independently_confirmed_on_building,True,False,35.881397,-78.851552,,,,NC,Durham,OpenStreetMap
dc_d1631b663c48,Level 3 Communications,,operational,building,independently_confirmed_on_building,True,False,35.881364,-78.8515726,,,,NC,Durham,OpenStreetMap
dc_a28b6b533687,OptimumHQ,,operational,building,independently_confirmed_on_building,True,False,33.3804149,-111.7526684,,,,AZ,Maricopa,OpenStreetMap
dc_2980260de3e5,The Chatfield Group,,operational,building,independently_confirmed_on_building,True,False,33.380601,-111.7528888,,,,AZ,Maricopa,OpenStreetMap
dc_b9549d1a3e6c,All About Serving Process Server,,operational,building,independently_confirmed_on_building,True,False,33.3199157,-111.809686,,,,AZ,Maricopa,OpenStreetMap
dc_4dccde6d1dfb,Emailage,,operational,building,independently_confirmed_on_building,True,False,33.302965,-111.8405386,,,,AZ,Maricopa,OpenStreetMap
dc_0ffde5e0d6a1,Alliance Technology,,operational,building,independently_confirmed_on_building,True,False,33.3799862,-111.728405,,,,AZ,Maricopa,OpenStreetMap
dc_74f18bfa8df0,8100 Boone Boulevard,Digital Realty,operational,building,on_osm_building_single_source,False,True,38.913702,-77.2258342,,,,VA,Fairfax,OpenStreetMap
dc_4465586fa278,Atlanta ATL13,Digital Realty,operational,building,independently_confirmed_on_building,True,False,33.7555186,-84.3914814,,,,GA,Fulton,OpenStreetMap
dc_c91b689569e2,Data Holdings Data Center,,operational,building,independently_confirmed_on_building,True,False,43.0439408,-87.9539794,,,,WI,Milwaukee,OpenStreetMap
dc_8f61bbab2b18,STACK Infrastructure,"Stack Infrastructure, Incorporated",operational,building,on_osm_building_single_source,False,True,37.4027449,-121.891051,,,,CA,Santa Clara,OpenStreetMap
dc_16b0103c1ecb,Digital West Data Center,,operational,building,independently_confirmed_on_building,True,False,35.2553162,-120.6415128,,,,CA,San Luis Obispo,OpenStreetMap
dc_e0a8ffe0675b,Chick-fil-A Hiring Center,Dennis Sampier,operational,building,independently_confirmed_on_building,True,False,42.6279424,-82.9883939,,,,MI,Macomb,OpenStreetMap
dc_9fe2fa1cb2a0,Ergonomic Group,,operational,building,on_osm_building_single_source,False,True,41.7070776,-72.5898636,,,,CT,Capitol,OpenStreetMap
dc_e6031badf345,San Jose Colocation Center,CoreSite,operational,building,on_osm_building_single_source,False,True,37.3341181,-121.891646,,,,CA,Santa Clara,OpenStreetMap
dc_a6907eaa6ace,Amazon Web Services IAD69,Amazon Web Services,operational,building,independently_confirmed_on_building,True,False,39.0254851,-77.4146998,,,,VA,Loudoun,OpenStreetMap
dc_165fe373f4a4,Stream Data Centers Houston,,operational,building,independently_confirmed_on_building,True,False,30.1777082,-95.486593,,,,TX,Montgomery,OpenStreetMap
dc_70473eb49a8f,Crown Castle Baltimore,Crown Castle Fiber,operational,building,on_osm_building_single_source,False,True,39.2877017,-76.6064893,,,,MD,Baltimore,OpenStreetMap
dc_a5cc2c2adb3a,AiNET One Market Center,AiNET,operational,building,on_osm_building_single_source,False,True,39.2917583,-76.6203737,,,,MD,Baltimore,OpenStreetMap
dc_8adc27a50dae,Lumen McLean,Lumen Technologies,operational,building,independently_confirmed_on_building,True,False,38.9208538,-77.2115713,,,,VA,Fairfax,OpenStreetMap
dc_14899623a0b1,TierPoint Milwaukee,,operational,building,independently_confirmed_on_building,True,False,43.0093779,-87.9610618,,,,WI,Milwaukee,OpenStreetMap
dc_7cf3203418c1,Frontier Science,,operational,building,independently_confirmed_on_building,True,False,42.9902011,-78.8123836,,,,NY,Erie,OpenStreetMap
dc_8d9f4b8cf0b8,505 Marquette,,operational,building,on_osm_building_single_source,False,True,35.0886289,-106.6526456,,,,NM,Bernalillo,OpenStreetMap
dc_b82bb79938c5,123 Central,bigbyte.cc,operational,building,independently_confirmed_on_building,True,False,35.0844494,-106.6489853,,,,NM,Bernalillo,OpenStreetMap
dc_02eebfd81a53,Oak Tower,,operational,building,on_osm_building_single_source,False,True,39.1011816,-94.5788209,,,,MO,Jackson,OpenStreetMap
dc_27fa53a57833,Netrality Data Centers,,operational,building,on_osm_building_single_source,False,True,39.1009071,-94.5811452,,,,MO,Jackson,OpenStreetMap
dc_52be2b848b4f,Netrality,Netrality,operational,building,independently_confirmed_on_building,True,False,41.8728811,-87.63344,,,,IL,Cook,OpenStreetMap
dc_d5e6794a2612,Brandaleone Lab for Data and Visualization,Duke Libraries,operational,building,on_osm_building_single_source,False,True,36.0030993,-78.9385323,,,,NC,Durham,OpenStreetMap
dc_d1cc4e423ca1,Frontier (supercomputer),Oak Ridge National Laboratory,operational,building,on_osm_building_single_source,False,True,35.9295133,-84.310567,,,,TN,Roane,OpenStreetMap
dc_1771855b67b2,TelePacific,Ntirety,operational,building,on_osm_building_single_source,False,True,37.7796531,-122.3940005,,,,CA,San Francisco,OpenStreetMap
dc_23be1dc53fc6,VaultLogix,,operational,building,independently_confirmed_on_building,True,False,33.627367,-111.9017033,,,,AZ,Maricopa,OpenStreetMap
dc_60ad9b8f15c0,Profit Finder Pro Software,,operational,building,independently_confirmed_on_building,True,False,33.6272477,-111.9020476,,,,AZ,Maricopa,OpenStreetMap
dc_37739045bbd2,DataPro USA Web Development,,operational,building,independently_confirmed_on_building,True,False,33.6116624,-111.9139825,,,,AZ,Maricopa,OpenStreetMap
dc_4b4306dd4707,e360,,operational,building,on_osm_building_single_source,False,True,37.9710809,-122.0437382,,,,CA,Contra Costa,OpenStreetMap
dc_dd96fac8908c,Digital Realty ORD10,Digital Realty,operational,building,independently_confirmed_on_building,True,False,41.8533507,-87.6183067,,,,IL,Cook,OpenStreetMap
dc_54fd156f6e89,Centersquare Chicago Data Center - ORD1,Centersquare,operational,building,independently_confirmed_on_building,True,False,41.8533827,-87.6186071,,,,IL,Cook,OpenStreetMap
dc_06c982ebea67,K-Motion Interactive,,operational,building,independently_confirmed_on_building,True,False,33.6344843,-111.8843457,,,,AZ,Maricopa,OpenStreetMap
dc_e2f0d5b0e152,West Monroe,,operational,building,independently_confirmed_on_building,True,False,41.8805271,-87.6359383,,,,IL,Cook,OpenStreetMap
dc_b5221ae8a695,Iron Mountain Data Centers AZS-1,,operational,building,independently_confirmed_on_building,True,False,33.6446663,-111.8960985,,,,AZ,Maricopa,OpenStreetMap
dc_1ecd2bc35dc3,CoreSite Chicago Data Center (CH1),CoreSite,operational,building,independently_confirmed_on_building,True,False,41.8759405,-87.6314655,,,,IL,Cook,OpenStreetMap
dc_dc42b75a08e1,Accelera Data Systems,,operational,building,independently_confirmed_on_building,True,False,33.6647455,-112.1117142,,,,AZ,Maricopa,OpenStreetMap
dc_41dcb90246ba,Expedient Owings Mills,Expedient,operational,building,on_osm_building_single_source,False,True,39.4273178,-76.8115503,,,,MD,Baltimore,OpenStreetMap
dc_06efc6377b82,Lumen Baltimore,Lumen Technologies,operational,building,on_osm_building_single_source,False,True,39.2917592,-76.6204024,,,,MD,Baltimore,OpenStreetMap
dc_aeb9d6e08cbd,Expedient Tidepoint,Expedient,operational,building,on_osm_building_single_source,False,True,39.2746554,-76.5916709,,,,MD,Baltimore,OpenStreetMap
dc_366bd093071c,Flexential - Denver - Centennial Data Center,Flexential,operational,building,independently_confirmed_on_building,True,False,39.5938733,-104.8431597,,,,CO,Arapahoe,OpenStreetMap
dc_dbefe86a9d2c,EdgeConneX Data Center,EdgeConneX,operational,building,independently_confirmed_on_building,True,False,33.3955855,-111.9700762,,,,AZ,Maricopa,OpenStreetMap
dc_c7c5fc8a1267,,,operational,building,independently_confirmed_on_building,True,False,41.8072817,-83.6276287,,,,MI,Monroe,OpenStreetMap
dc_60a8427538d7,IT,,operational,building,independently_confirmed_on_building,True,False,33.9102899,-117.5030207,,,,CA,Riverside,OpenStreetMap
dc_f96046272fcb,"Alembic Computer Services, Inc.",,operational,building,independently_confirmed_on_building,True,False,33.4051307,-111.9773353,,,,AZ,Maricopa,OpenStreetMap
dc_d80fbebeedc2,J-Curve Technologies,,operational,building,independently_confirmed_on_building,True,False,33.4131856,-111.9711539,,,,AZ,Maricopa,OpenStreetMap
dc_623234ef1b41,Flexential Cincinnati,Flexential,operational,building,independently_confirmed_on_building,True,False,39.3159313,-84.4494638,,,,OH,Butler,OpenStreetMap
dc_023d2663ae5d,Flexential Denver - Downtown,Flexential,operational,building,on_osm_building_single_source,False,True,39.7459702,-104.9941589,,,,CO,Denver,OpenStreetMap
dc_65dbd76e7604,Flexential Dallas - Downtown Dallas,Flexential,operational,building,independently_confirmed_on_building,True,False,32.8004101,-96.8193707,,,,TX,Dallas,OpenStreetMap
dc_4861bf2a2b63,Flexential Jacksonville,Flexential,operational,building,independently_confirmed_on_building,True,False,30.2457482,-81.5817226,,,,FL,Duval,OpenStreetMap
dc_a8ddb88fae41,Flexential - Denver - Aurora,Flexential,operational,building,independently_confirmed_on_building,True,False,39.6610488,-104.8488321,,,,CO,Arapahoe,OpenStreetMap
dc_4bfdea1a9bd2,Flexential Nashville - Brentwood,Flexential,operational,building,independently_confirmed_on_building,True,False,35.9727294,-86.8084949,,,,TN,Williamson,OpenStreetMap
dc_3d82ec0fd7d6,Flexential Raleigh,Flexential,operational,building,independently_confirmed_on_building,True,False,35.8505281,-78.8291431,,,,NC,Wake,OpenStreetMap
dc_672db836d74d,Flexential Tampa - West,Flexential,operational,building,on_osm_building_single_source,False,True,28.0372991,-82.5399781,,,,FL,Hillsborough,OpenStreetMap
dc_193e064bdc4b,Flexential Salt Lake City - Lindon,Flexential,operational,building,independently_confirmed_on_building,True,False,40.332648,-111.7278754,,,,UT,Utah,OpenStreetMap
dc_d5a6dcb8e4b7,Digital Realty New York JFK13,Digital Realty,operational,building,independently_confirmed_on_building,True,False,40.719928,-74.0044583,,,,NY,New York,OpenStreetMap
dc_2e2dbc3e3848,Digital Realty New York JFK12,Digital Realty,operational,building,independently_confirmed_on_building,True,False,40.7176766,-74.0084414,,,,NY,New York,OpenStreetMap
dc_e17d7e79bbea,CoreSite AT1,CoreSite,operational,building,independently_confirmed_on_building,True,False,33.7559857,-84.3911712,,,,GA,Fulton,OpenStreetMap
dc_a76f8d21216f,UNM Data Center,UNM,operational,building,independently_confirmed_on_building,True,False,35.0867385,-106.6153476,,,,NM,Bernalillo,OpenStreetMap
dc_73ec60377ab8,Prime Santa Clara,Prime,operational,building,on_osm_building_single_source,False,True,37.3666621,-121.9628653,,,,CA,Santa Clara,OpenStreetMap
dc_36114ae3ca3e,Open Data Centers Piscataway,,operational,building,independently_confirmed_on_building,True,False,40.5503501,-74.4568563,,,,NJ,Middlesex,OpenStreetMap
dc_5b163fef210d,H5 Secaucus,H5,operational,building,independently_confirmed_on_building,True,False,40.7853948,-74.0750122,,,,NJ,Hudson,OpenStreetMap
dc_e0ba05af04ef,"Forescout Technologies, Inc.",,operational,building,independently_confirmed_on_building,True,False,37.3228675,-121.9474176,,,,CA,Santa Clara,OpenStreetMap
dc_10b31ee93f9a,Lumen Albany 4,Lumen Technologies,operational,building,independently_confirmed_on_building,True,False,42.7356308,-73.818665,,,,NY,Albany,OpenStreetMap
dc_9c4395da1472,Equinix Chicago Data Center - CH1,Equinix,operational,building,independently_confirmed_on_building,True,False,41.8535578,-87.6180475,,,,IL,Cook,OpenStreetMap
dc_ad06f9a5ee9b,501 West,,operational,building,independently_confirmed_on_building,True,False,40.315558,-74.6688514,,,,NJ,Mercer,OpenStreetMap
dc_e40648befe43,Dataverge,Dataverge,operational,building,on_osm_building_single_source,False,True,40.6576957,-74.0048163,,,,NY,Kings,OpenStreetMap
dc_497196a639d6,TulsaConnect DC3,,operational,building,independently_confirmed_on_building,True,False,36.0994735,-95.8382826,,,,OK,Tulsa,OpenStreetMap
dc_8d43e8f81b7b,Comarch,,operational,building,on_osm_building_single_source,False,True,33.3566787,-111.6352356,,,,AZ,Maricopa,OpenStreetMap
dc_d850cf921795,CoreSite - LA2,CoreSite,operational,building,independently_confirmed_on_building,True,False,34.0584789,-118.2359144,,,,CA,Los Angeles,OpenStreetMap
dc_feb9c3b5df7f,NTT Ashburn VA7 Data Center,NTT,operational,building,on_osm_building_single_source,False,True,39.0160142,-77.471954,,,,VA,Loudoun,OpenStreetMap
dc_4d54edf1f2b3,NTT VA11 Data Center,NTT,operational,building,on_osm_building_single_source,False,True,38.7999731,-77.6099636,,,,VA,Prince William,OpenStreetMap
dc_506cd0de8c4c,Lumen Madison 1 Data Center,Lumen Technologies,operational,building,independently_confirmed_on_building,True,False,43.0677161,-89.3922794,,,,WI,Dane,OpenStreetMap
dc_5b7a9e3b7823,Fiberhub LAS1,Fiberhub,operational,building,independently_confirmed_on_building,True,False,36.065929,-115.13856,,,,NV,Clark,OpenStreetMap
dc_c1dfe74f8be0,DāStor: 3400 Horizon Drive,,operational,building,independently_confirmed_on_building,True,False,40.0879189,-75.3397205,,,,PA,Montgomery,OpenStreetMap
dc_6f6d4e070042,Rad Web Hosting,,operational,building,independently_confirmed_on_building,True,False,32.7784469,-96.798496,,,,TX,Dallas,OpenStreetMap
dc_57b30b036cf1,Alpha Federal,Alpha Innovations,operational,building,independently_confirmed_on_building,True,False,38.3531768,-81.6961822,,,,WV,Kanawha,OpenStreetMap
dc_7c8e1e4ba3bf,Parsec Data Management,,operational,building,independently_confirmed_on_building,True,False,45.7430786,-108.6030144,,,,MT,Yellowstone,OpenStreetMap
dc_b4dfc8453b28,Applied Digital,,operational,building,on_osm_building_single_source,False,True,46.9741721,-96.8739403,,,,ND,Cass,OpenStreetMap
dc_380aecb0436f,RIC1 DC1,Quality Technology Services,operational,building,on_osm_building_single_source,False,True,37.4892338,-77.2474761,,,,VA,Henrico,OpenStreetMap
dc_d5435f3cc757,RIC1 DC2,Quality Technology Services,operational,building,on_osm_building_single_source,False,True,37.4886164,-77.2462097,,,,VA,Henrico,OpenStreetMap
dc_1aee472b3c86,RIC1 DC3,Quality Technology Services,operational,building,on_osm_building_single_source,False,True,37.4878581,-77.2448256,,,,VA,Henrico,OpenStreetMap
dc_40afc33af359,TulsaConnect,,operational,building,independently_confirmed_on_building,True,False,36.153294,-95.989193,,,,OK,Tulsa,OpenStreetMap
dc_4dbe408255c8,Windstream,,operational,building,on_osm_building_single_source,False,True,36.1485011,-95.990514,,,,OK,Tulsa,OpenStreetMap
dc_ddc20b8cfb33,TulsaConnect,,operational,building,on_osm_building_single_source,False,True,36.1484524,-95.9908198,,,,OK,Tulsa,OpenStreetMap
dc_515444aaf104,Digital Fortress - Portland 1,"Digital Fortress, Inc",operational,building,independently_confirmed_on_building,True,False,45.5212569,-122.6817537,,,,OR,Multnomah,OpenStreetMap
dc_9b38f4695f6f,Digital Fortress - Portland 2,"Digital Fortress, Inc",operational,building,independently_confirmed_on_building,True,False,45.4762137,-122.7760868,,,,OR,Washington,OpenStreetMap
dc_0a5b4dcabb86,Digital Fortress - Portland 3,"Digital Fortress, Inc",operational,building,independently_confirmed_on_building,True,False,45.475634,-122.7764098,,,,OR,Washington,OpenStreetMap
dc_37b6e4984473,H5 DC - Portland,H5 Data Centers,operational,building,independently_confirmed_on_building,True,False,45.5316902,-122.6837652,,,,OR,Multnomah,OpenStreetMap
dc_23feba8dfbd6,Date Center West - Eugene,"Data Center West, Inc.",operational,building,independently_confirmed_on_building,True,False,44.0506071,-123.0929782,,,,OR,Lane,OpenStreetMap
dc_1d6382ebcca5,QTS Ashburn 2,Quality Technology Services,operational,building,on_osm_building_single_source,False,True,38.9982397,-77.4491455,,,,VA,Loudoun,OpenStreetMap
dc_70ea5deecfdb,OCOSA,,operational,building,independently_confirmed_on_building,True,False,36.153287,-95.989191,,,,OK,Tulsa,OpenStreetMap
dc_01c60ff235ed,Vantage VA16,,operational,building,on_osm_building_single_source,False,True,38.9985084,-77.4406368,,,,VA,Loudoun,OpenStreetMap
dc_a3b2dac5f2d0,Vantage VA15,,operational,building,on_osm_building_single_source,False,True,38.9994047,-77.4417901,,,,VA,Loudoun,OpenStreetMap
dc_57ca1ebae8e5,Iron City No. 1 Power Generator and Compute Center,,operational,building,on_osm_building_single_source,False,True,41.1410436,-78.0974055,,,,PA,Clearfield,OpenStreetMap
dc_a8ea97c0d02a,Cyxtera Dallas-Fort Worth Data Center,Cyxtera,operational,building,independently_confirmed_on_building,True,False,32.8327103,-97.0410284,,,,TX,Tarrant,OpenStreetMap
dc_e569435cdfa4,Equinix Infomart,Equinix,operational,building,independently_confirmed_on_building,True,False,32.8009535,-96.8195234,,,,TX,Dallas,OpenStreetMap
dc_686c58c1074a,CoreSite BO1,,operational,building,independently_confirmed_on_building,True,False,42.3767059,-71.0797577,,,,MA,Middlesex,OpenStreetMap
dc_cb30a328369f,USPO Terminal Annex,United States Postal Service,operational,building,on_osm_building_single_source,False,True,34.0581039,-118.2353939,,,,CA,Los Angeles,OpenStreetMap
dc_ac08463eb4ec,DataBank,,operational,building,independently_confirmed_on_building,True,False,32.7783107,-96.7984357,,,,TX,Dallas,OpenStreetMap
dc_2d3e640cf930,CyrusOne Cincinnati-Mason CIN3,CyrusOne,operational,building,independently_confirmed_on_building,True,False,39.3038941,-84.3116127,,,,OH,Warren,OpenStreetMap
dc_24567abd6c58,LightEdge SAN1,,operational,building,independently_confirmed_on_building,True,False,32.8278941,-117.1299275,,,,CA,San Diego,OpenStreetMap
dc_8d1887ea9099,EdgeConneX San Diego,EdgeConneX,operational,building,independently_confirmed_on_building,True,False,32.8423554,-117.1694226,,,,CA,San Diego,OpenStreetMap
dc_613e1ba146fa,RagingWire CA2,NTT,operational,building,independently_confirmed_on_building,True,False,38.6504002,-121.4919461,,,,CA,Sacramento,OpenStreetMap
dc_8313dc48caac,RagingWire CA1,NTT,operational,building,independently_confirmed_on_building,True,False,38.6504319,-121.4891868,,,,CA,Sacramento,OpenStreetMap
dc_aaeb2a6d5fa0,Hewlett-Packard,,operational,building,on_osm_building_single_source,False,True,34.0820578,-84.2672921,,,,GA,Fulton,OpenStreetMap
dc_4e99cc75cd39,Equinix SV1,Equinix,operational,building,on_osm_building_single_source,False,True,37.2415975,-121.7833277,,,,CA,Santa Clara,OpenStreetMap
dc_d4812e5e6145,,,operational,building,independently_confirmed_on_building,True,False,39.2940482,-84.4121132,,,,OH,Hamilton,OpenStreetMap
dc_9558c9615f47,Lumen Sunnyvale 1,Lumen Technologies,operational,building,independently_confirmed_on_building,True,False,37.3734695,-121.9878002,,,,CA,Santa Clara,OpenStreetMap
dc_4c8ff415be80,OpenColo,,operational,building,independently_confirmed_on_building,True,False,37.3788292,-121.9559257,,,,CA,Santa Clara,OpenStreetMap
dc_764778a857ca,Equinix Santa Clara SV2,Equinix,operational,building,independently_confirmed_on_building,True,False,37.3784704,-121.9549839,,,,CA,Santa Clara,OpenStreetMap
dc_5de7805a4d95,Layer42 Santa Clara,Layer42,operational,building,independently_confirmed_on_building,True,False,37.3780374,-121.9541277,,,,CA,Santa Clara,OpenStreetMap
dc_b00a5fe6d20d,Digital Realty Silicon Valley SJC34,Digital Realty,operational,building,independently_confirmed_on_building,True,False,37.3724077,-121.973647,,,,CA,Santa Clara,OpenStreetMap
dc_8e694360ade4,Csquare SFO1,Csquare,operational,building,independently_confirmed_on_building,True,False,37.3714713,-121.9696826,,,,CA,Santa Clara,OpenStreetMap
dc_c55962889669,,Vantage,operational,building,independently_confirmed_on_building,True,False,37.3733075,-121.9727778,,,,CA,Santa Clara,OpenStreetMap
dc_da9fd4387a5d,Strategic Datasphere,,operational,building,independently_confirmed_on_building,True,False,34.0948126,-84.2357244,,,,GA,Fulton,OpenStreetMap
dc_c9d4281c0249,Flexential Atlanta - Alpharetta Data Center,Flexential,operational,building,independently_confirmed_on_building,True,False,34.0869864,-84.2518184,,,,GA,Fulton,OpenStreetMap
dc_dca5ba467cc7,Secure Data Center,,operational,building,on_osm_building_single_source,False,True,34.0937063,-84.250878,,,,GA,Fulton,OpenStreetMap
dc_9590e95f1c65,Cologix Santa Clara SV1 Data Center,Cologix,operational,building,independently_confirmed_on_building,True,False,37.3654018,-121.9616726,,,,CA,Santa Clara,OpenStreetMap
dc_95ac86b8be5c,Netrality Data Centers,,operational,building,on_osm_building_single_source,False,True,38.6292617,-90.1971749,,,,MO,St. Louis,OpenStreetMap
dc_88909d588f3f,Minneapolis Data Center #2,XO Communications,operational,building,independently_confirmed_on_building,True,False,44.9914423,-93.2803397,,,,MN,Hennepin,OpenStreetMap
dc_e567c4149e4f,Equinix DC14,Equinix,operational,building,independently_confirmed_on_building,True,False,38.8034341,-77.5105821,,,,VA,Prince William,OpenStreetMap
dc_8e9fdcb36e6f,Amazon IAD11,Amazon Web Services,operational,building,independently_confirmed_on_building,True,False,38.7904948,-77.5411095,,,,VA,Prince William,OpenStreetMap
dc_efd5fc83731e,Amazon IAD24,Amazon Web Services,operational,building,independently_confirmed_on_building,True,False,38.7903463,-77.5400098,,,,VA,Prince William,OpenStreetMap
dc_0af20c3aa097,Amazon IAD7,Amazon Web Services,operational,building,independently_confirmed_on_building,True,False,38.7911993,-77.5382664,,,,VA,Prince William,OpenStreetMap
dc_e4369ccb8810,CyrusOne CIN2,CyrusOne,operational,building,on_osm_building_single_source,False,True,39.1026943,-84.5178996,,,,OH,Hamilton,OpenStreetMap
dc_b067df925538,VA 4,Digital Realty,operational,building,on_osm_building_single_source,False,True,38.7780614,-77.594905,,,,VA,Prince William,OpenStreetMap
dc_1cb42af58320,Amazon IAD10,Amazon Web Services,operational,building,independently_confirmed_on_building,True,False,39.0216753,-77.4329728,,,,VA,Loudoun,OpenStreetMap
dc_9fb1f8d58659,Amazon IAD32,Amazon Web Services,operational,building,independently_confirmed_on_building,True,False,39.0215693,-77.4347944,,,,VA,Loudoun,OpenStreetMap
dc_15ae64532452,NTT RagingWire DC - Hillsboro,NTT,operational,building,independently_confirmed_on_building,True,False,45.5496803,-122.9373872,,,,OR,Washington,OpenStreetMap
dc_7d1f285cb791,Centersquare IAD1-B,Centersquare,operational,building,independently_confirmed_on_building,True,False,39.0238679,-77.4152091,,,,VA,Loudoun,OpenStreetMap
dc_7c8c55acfb6b,Centersquare IAD1-A,Centersquare,operational,building,independently_confirmed_on_building,True,False,39.0232978,-77.4132123,,,,VA,Loudoun,OpenStreetMap
dc_d41fb281d30a,Centersquare IAD1-C,Centersquare,operational,building,independently_confirmed_on_building,True,False,39.024754,-77.4122043,,,,VA,Loudoun,OpenStreetMap
dc_667e78753bcc,Flexential Minneapolis - Chaska,Flexential,operational,building,independently_confirmed_on_building,True,False,44.8516116,-93.5988964,,,,MN,Carver,OpenStreetMap
dc_f5142250b983,Pearl Plaza Office Building,,operational,building,independently_confirmed_on_building,True,False,39.7452303,-104.9793322,,,,CO,Denver,OpenStreetMap
dc_12f42ac7aa67,Csquare SFO2,Csquare,operational,building,independently_confirmed_on_building,True,False,37.397572,-121.980963,,,,CA,Santa Clara,OpenStreetMap
dc_7535ad317c26,Csquare SFO2,Csquare,operational,building,independently_confirmed_on_building,True,False,37.3986381,-121.9811563,,,,CA,Santa Clara,OpenStreetMap
dc_1162b8639226,QTS Santa Clara 1,Quality Technology Services,operational,building,independently_confirmed_on_building,True,False,37.3939862,-121.9783207,,,,CA,Santa Clara,OpenStreetMap
dc_e1d7138b0007,CoreSite SV3,CoreSite,operational,building,independently_confirmed_on_building,True,False,37.3751575,-121.9717141,,,,CA,Santa Clara,OpenStreetMap
dc_c8e79bad6c96,CoreSite SV6,CoreSite,operational,building,independently_confirmed_on_building,True,False,37.3763019,-121.9720837,,,,CA,Santa Clara,OpenStreetMap
dc_03fb7c7b8edd,CoreSite SV8,CoreSite,operational,building,independently_confirmed_on_building,True,False,37.3773827,-121.97184,,,,CA,Santa Clara,OpenStreetMap
dc_77cbe277429a,CoreSite SV5,CoreSite,operational,building,independently_confirmed_on_building,True,False,37.3751959,-121.9706889,,,,CA,Santa Clara,OpenStreetMap
dc_c6ae9e1f88c6,CoreSite SV9,CoreSite,operational,building,independently_confirmed_on_building,True,False,37.3755551,-121.9696049,,,,CA,Santa Clara,OpenStreetMap
dc_2358caf9e233,QTS Santa Clara 2,Quality Technology Services,operational,building,independently_confirmed_on_building,True,False,37.3927307,-121.9784277,,,,CA,Santa Clara,OpenStreetMap
dc_1628a2b176c6,STACK NVA01A - Northern Virginia,Stack Infrastructure,operational,building,independently_confirmed_on_building,True,False,39.0046933,-77.4417399,,,,VA,Loudoun,OpenStreetMap
dc_0f239b20a7ba,Minnesota Gateway Data Center,,operational,building,independently_confirmed_on_building,True,False,44.9712882,-93.2546974,,,,MN,Hennepin,OpenStreetMap
dc_806d588bcd8f,IBM Building,,operational,building,on_osm_building_single_source,False,True,42.6493531,-73.7527453,,,,NY,Albany,OpenStreetMap
dc_6146656d1013,,Verizon Wireless,operational,building,independently_confirmed_on_building,True,False,42.3262876,-83.0769768,,,,MI,Wayne,OpenStreetMap
dc_601b882f713f,VA3,Digital Realty,operational,building,independently_confirmed_on_building,True,False,38.9484941,-77.3273071,,,,VA,Fairfax,OpenStreetMap
dc_9f34fd0de9e0,IAD1,Evocative,operational,building,independently_confirmed_on_building,True,False,38.9488119,-77.3294144,,,,VA,Fairfax,OpenStreetMap
dc_1893390c83ef,CoreSite Reston Campus VA1,CoreSite,operational,building,independently_confirmed_on_building,True,False,38.9506059,-77.3645496,,,,VA,Fairfax,OpenStreetMap
dc_0528a0ff632a,CoreSite Reston VA3,CoreSite,operational,building,independently_confirmed_on_building,True,False,38.9483343,-77.3724298,,,,VA,Fairfax,OpenStreetMap
dc_22ddddb49a8e,,FirstLight,operational,building,independently_confirmed_on_building,True,False,43.0761287,-70.8080395,,,,NH,Rockingham,OpenStreetMap
dc_4acc5a2218d7,Insurance Exchange Building,,operational,building,on_osm_building_single_source,False,True,39.745572,-104.9956909,,,,CO,Denver,OpenStreetMap
dc_5a1da1c84a02,Lincoln Rackhouse Maryland,Lincoln Rackhouse,operational,building,independently_confirmed_on_building,True,False,39.0586081,-76.964467,,,,MD,Montgomery,OpenStreetMap
dc_4c8f72b408e3,CyrusOne Cincinnati-Lebanon,,operational,building,on_osm_building_single_source,False,True,39.3889702,-84.2218527,,,,OH,Warren,OpenStreetMap
dc_19939411d9e4,Equinix NY7 Data Center,Equinix,operational,building,independently_confirmed_on_building,True,False,40.7968626,-74.0311403,,,,NJ,Hudson,OpenStreetMap
dc_938af684faa3,Equinix SV4,Equinix,operational,building,independently_confirmed_on_building,True,False,37.4145109,-122.0145563,,,,CA,Santa Clara,OpenStreetMap
dc_69730b99b070,Verizon - Bloomington Network,Verizon,operational,building,independently_confirmed_on_building,True,False,44.8072109,-93.375385,,,,MN,Hennepin,OpenStreetMap
dc_08bc73ca6961,H5 Data Centers San Antonio,H5 Data Centers,operational,building,independently_confirmed_on_building,True,False,29.4293706,-98.4869057,,,,TX,Bexar,OpenStreetMap
dc_8570f2737bd4,Aureon,,operational,building,independently_confirmed_on_building,True,False,41.5879926,-93.6310139,,,,IA,Polk,OpenStreetMap
dc_329f757102fc,,,operational,building,on_osm_building_single_source,False,True,35.5881079,-81.2625753,,,,NC,Catawba,OpenStreetMap
dc_7dc677ea1823,Patmos KC2,"Patmos Hosting, Inc.",operational,building,on_osm_building_single_source,False,True,39.0944683,-94.5794418,,,,MO,Jackson,OpenStreetMap
dc_f3e921cb9abe,Digital Realty New York HVN10,Digital Realty,operational,building,independently_confirmed_on_building,True,False,41.2407307,-73.1472668,,,,CT,Greater Bridgeport,OpenStreetMap
dc_73dc9624ff3e,Lincoln Rackhouse,,operational,building,independently_confirmed_on_building,True,False,41.7721034,-88.2170821,,,,IL,DuPage,OpenStreetMap
dc_4f3fb90492d6,Digital Realty CH1,Digital Realty,operational,building,independently_confirmed_on_building,True,False,41.9942413,-87.961935,,,,IL,Cook,OpenStreetMap
dc_56b1c9faf7e3,H5 Minneapolis,H5,operational,building,independently_confirmed_on_building,True,False,44.972195,-93.1474731,,,,MN,Ramsey,OpenStreetMap
dc_e797a6f7ed88,Iron Mountain Records Storage,Iron Mountain,operational,building,independently_confirmed_on_building,True,False,33.42038,-112.0413257,,,,AZ,Maricopa,OpenStreetMap
dc_01f94da97123,Equinix SV8,Equinix,operational,building,independently_confirmed_on_building,True,False,37.4458951,-122.160786,,,,CA,Santa Clara,OpenStreetMap
dc_8220a2e039af,NCSA Petascale Computing Facility,,operational,building,independently_confirmed_on_building,True,False,40.0952591,-88.2420314,,,,IL,Champaign,OpenStreetMap
dc_cb35267e5332,LexisNexus Springfield,,operational,building,on_osm_building_single_source,False,True,39.912797,-83.7236638,,,,OH,Clark,OpenStreetMap
dc_5d6a143d4026,Digital Realty ORD11,Digital Realty,operational,building,independently_confirmed_on_building,True,False,41.8743036,-87.6299404,,,,IL,Cook,OpenStreetMap
dc_65815b1ef945,Lumen,Lumen Technologies,operational,building,independently_confirmed_on_building,True,False,33.494309,-112.0707916,,,,AZ,Maricopa,OpenStreetMap
dc_71ee549f276d,L3Harris Technologies Inc,,operational,building,independently_confirmed_on_building,True,False,33.3053366,-111.6716904,,,,AZ,Maricopa,OpenStreetMap
dc_c9d94248f419,AZ Labs,,operational,building,independently_confirmed_on_building,True,False,33.3062801,-111.6717217,,,,AZ,Maricopa,OpenStreetMap
dc_af553fcece3c,Serverfarm CH1,Serverfarm,operational,building,independently_confirmed_on_building,True,False,41.8709439,-87.6401413,,,,IL,Cook,OpenStreetMap
dc_ed04a1ecbe51,Aligned Energy Data Center,,operational,building,independently_confirmed_on_building,True,False,33.6590546,-112.1111595,,,,AZ,Maricopa,OpenStreetMap
dc_94b7312e4711,Lakeside Technology Center,,operational,building,independently_confirmed_on_building,True,False,41.8536916,-87.6182716,,,,IL,Cook,OpenStreetMap
dc_fb37a9ca7ac1,Flexential Phoenix - Deer Valley,Flexential,operational,building,independently_confirmed_on_building,True,False,33.6846775,-112.0983398,,,,AZ,Maricopa,OpenStreetMap
dc_8a38216b0122,TierPoint,,operational,building,independently_confirmed_on_building,True,False,36.1585898,-95.9886293,,,,OK,Tulsa,OpenStreetMap
dc_a4d71aa335ce,Equinix SV5,Equinix,operational,building,independently_confirmed_on_building,True,False,37.2420719,-121.7817852,,,,CA,Santa Clara,OpenStreetMap
dc_1a16f88c10dd,"Union Pacific Jack Koraleski Technology, Research & Development Center",Union Pacific Railroad,operational,building,on_osm_building_single_source,False,True,41.3179864,-96.0503485,,,,NE,Douglas,OpenStreetMap
dc_270c6c0a4182,DataBank Pittsburgh PIT2,,operational,building,on_osm_building_single_source,False,True,40.4513704,-80.1901663,,,,PA,Allegheny,OpenStreetMap
dc_42b099cfcbc7,Molina Healthcare,Molina Healthcare,operational,building,on_osm_building_single_source,False,True,34.9954515,-106.6180334,,,,NM,Bernalillo,OpenStreetMap
dc_3cef3c541b5d,Switch12,Switch,operational,building,independently_confirmed_on_building,True,False,36.0617389,-115.2132922,,,,NV,Clark,OpenStreetMap
dc_da72086b812a,Switch Las Vegas 7,Switch,operational,building,independently_confirmed_on_building,True,False,36.0599191,-115.210197,,,,NV,Clark,OpenStreetMap
dc_06cf1c89d97f,EdgeConneX CHI01,EdgeConneX,operational,building,independently_confirmed_on_building,True,False,42.0007751,-87.9507686,,,,IL,Cook,OpenStreetMap
dc_f54271a3c826,,,operational,building,independently_confirmed_on_building,True,False,39.3777781,-77.4115448,,,,MD,Frederick,OpenStreetMap
dc_2a69da90abd8,Verizon Wireline Network Building,,operational,building,independently_confirmed_on_building,True,False,40.4949031,-74.4430949,,,,NJ,Middlesex,OpenStreetMap
dc_535d66b5f9b6,RagingWire CA3,NTT,operational,building,independently_confirmed_on_building,True,False,38.6442393,-121.4987627,,,,CA,Sacramento,OpenStreetMap
dc_f5d875508817,,,operational,building,independently_confirmed_on_building,True,False,41.2214856,-95.863822,,,,IA,Pottawattamie,OpenStreetMap
dc_8d7d400daa85,360 Spear Street Data Center,Digital Realty,operational,building,on_osm_building_single_source,False,True,37.7889916,-122.3901367,,,,CA,San Francisco,OpenStreetMap
dc_df94ebb7df29,Equinix New York Secaucus NY5,Equinix,operational,building,independently_confirmed_on_building,True,False,40.7785845,-74.0723242,,,,NJ,Hudson,OpenStreetMap
dc_e2b5deb384b2,Equinix New York Secaucus NY4,Equinix,operational,building,independently_confirmed_on_building,True,False,40.7764281,-74.0697759,,,,NJ,Hudson,OpenStreetMap
dc_73f7a3eb7f29,Equinix NY3,Equinix,operational,building,independently_confirmed_on_building,True,False,40.7749028,-74.0689687,,,,NJ,Hudson,OpenStreetMap
dc_1cb4fe2a0b9e,Equinix New York Secaucus NY2,Equinix,operational,building,independently_confirmed_on_building,True,False,40.7772907,-74.0759403,,,,NJ,Hudson,OpenStreetMap
dc_22a977948445,Centersquare NYC3 Data Center,Centersquare,operational,building,independently_confirmed_on_building,True,False,40.786164,-74.0691645,,,,NJ,Hudson,OpenStreetMap
dc_d983542baf94,QTS Sacramento,Quality Technology Services,operational,building,independently_confirmed_on_building,True,False,38.6463763,-121.4862686,,,,CA,Sacramento,OpenStreetMap
dc_5c2f48f1f831,,,operational,building,independently_confirmed_on_building,True,False,39.2906383,-94.6759163,,,,MO,Platte,OpenStreetMap
dc_0ea9fc7adeb0,Lincoln Rackhouse Kansas City,,operational,building,independently_confirmed_on_building,True,False,39.2955554,-94.6734862,,,,MO,Platte,OpenStreetMap
dc_603a01fbe6f3,Black Rock Financial Management,,operational,building,independently_confirmed_on_building,True,False,39.2954814,-94.6780114,,,,MO,Platte,OpenStreetMap
dc_7517a65ae363,,,operational,building,independently_confirmed_on_building,True,False,39.3024057,-94.6847918,,,,MO,Platte,OpenStreetMap
dc_f9a1698669ea,Cherokee Data Center,,operational,building,independently_confirmed_on_building,True,False,36.2625496,-95.9100413,,,,OK,Tulsa,OpenStreetMap
dc_f9657e3a222d,CyrusOne Chicago Aurora CME,CyrusOne,operational,building,independently_confirmed_on_building,True,False,41.7966077,-88.2438232,,,,IL,DuPage,OpenStreetMap
dc_56db95055eaf,Xfinity/Comcast Data Center,,operational,building,independently_confirmed_on_building,True,False,39.5883237,-104.8324181,,,,CO,Arapahoe,OpenStreetMap
dc_84c0a8b27128,IO Datacenter,,operational,building,on_osm_building_single_source,False,True,40.5208169,-74.3472226,,,,NJ,Middlesex,OpenStreetMap
dc_72f68f42d432,DataBank Piscataway EWR2,,operational,building,independently_confirmed_on_building,True,False,40.5492135,-74.4582096,,,,NJ,Middlesex,OpenStreetMap
dc_ba26367c42aa,Optimum,,operational,building,independently_confirmed_on_building,True,False,40.5468425,-74.4920459,,,,NJ,Middlesex,OpenStreetMap
dc_41293169fcf5,Equinix,Equinix,operational,building,independently_confirmed_on_building,True,False,40.5449197,-74.4953594,,,,NJ,Middlesex,OpenStreetMap
dc_8e83f64e34c5,Barclays Datacenter,Barclays,operational,building,independently_confirmed_on_building,True,False,40.5472443,-74.4597373,,,,NJ,Middlesex,OpenStreetMap
dc_22a625aec698,Digital Realty New York EWR12,Digital Realty,operational,building,independently_confirmed_on_building,True,False,40.5529283,-74.4592038,,,,NJ,Middlesex,OpenStreetMap
dc_c2f3fa259c37,Digital Realty New York EWR11,Digital Realty,operational,building,independently_confirmed_on_building,True,False,40.5537931,-74.4571024,,,,NJ,Middlesex,OpenStreetMap
dc_8eb668a8b3c3,Intergate Seattle East Building 2,,operational,building,independently_confirmed_on_building,True,False,47.4950309,-122.2905696,,,,WA,King,OpenStreetMap
dc_9f04712f31d7,Intergate Seattle East Building 1,Sabey,operational,building,independently_confirmed_on_building,True,False,47.4948597,-122.2881943,,,,WA,King,OpenStreetMap
dc_9244f32ac697,Equinix SV15,Equinix,operational,building,independently_confirmed_on_building,True,False,37.3754952,-121.9884063,,,,CA,Santa Clara,OpenStreetMap
dc_518875f9d853,Equinix SV16,Equinix,operational,building,independently_confirmed_on_building,True,False,37.3761243,-121.9886718,,,,CA,Santa Clara,OpenStreetMap
dc_9c927d5b249c,Equinix SV17,Equinix,operational,building,independently_confirmed_on_building,True,False,37.3765309,-121.9885825,,,,CA,Santa Clara,OpenStreetMap
dc_a9ccce6607ff,Equinix SV14,Equinix,operational,building,independently_confirmed_on_building,True,False,37.3749843,-121.9884742,,,,CA,Santa Clara,OpenStreetMap
dc_27bede9eb66c,CoreSite SV4,CoreSite,operational,building,independently_confirmed_on_building,True,False,37.3762614,-121.9706851,,,,CA,Santa Clara,OpenStreetMap
dc_49bdf2fd4426,Lumen Santa Clara,Lumen Technologies,operational,building,independently_confirmed_on_building,True,False,37.3770332,-121.952059,,,,CA,Santa Clara,OpenStreetMap
dc_3e5f70660fb6,Prime Santa Clara,Prime,operational,building,independently_confirmed_on_building,True,False,37.3750172,-121.9532497,,,,CA,Santa Clara,OpenStreetMap
dc_dc75a6364fe9,Digital Realty Silicon Valley SJC10,Digital Realty,operational,building,independently_confirmed_on_building,True,False,37.375822,-121.9533359,,,,CA,Santa Clara,OpenStreetMap
dc_7e1ec0fe32da,Colovore,,operational,building,independently_confirmed_on_building,True,False,37.3767228,-121.9531439,,,,CA,Santa Clara,OpenStreetMap
dc_67a4e14e8e91,Digital Realty Silicon Valley SJC30,Digital Realty,operational,building,independently_confirmed_on_building,True,False,37.3782874,-121.9581107,,,,CA,Santa Clara,OpenStreetMap
dc_bbef47685601,Digital Realty Silicon Valley SJC15,Digital Realty,operational,building,independently_confirmed_on_building,True,False,37.3749966,-121.9540769,,,,CA,Santa Clara,OpenStreetMap
dc_3fa01f9ed0e0,Digital Realty Silicon Valley SJC16,Digital Realty,operational,building,independently_confirmed_on_building,True,False,37.3749324,-121.9559987,,,,CA,Santa Clara,OpenStreetMap
dc_05ba33d454f3,Digital Realty Silicon Valley SJC29,Digital Realty,operational,building,independently_confirmed_on_building,True,False,37.3750232,-121.9580962,,,,CA,Santa Clara,OpenStreetMap
dc_13ba42acb0f3,Csquare SFO4,Csquare,operational,building,independently_confirmed_on_building,True,False,37.3757986,-121.9551844,,,,CA,Santa Clara,OpenStreetMap
dc_7cdd84794129,Prime SANTA CLARA DATA CENTER,Prime,operational,building,independently_confirmed_on_building,True,False,37.3750292,-121.9548775,,,,CA,Santa Clara,OpenStreetMap
dc_b7521d3b140b,Digital Realty Silicon Valley SJC11,Digital Realty,operational,building,independently_confirmed_on_building,True,False,37.3763668,-121.9485649,,,,CA,Santa Clara,OpenStreetMap
dc_a33e0eaf3913,Lumen,Lumen Technologies,operational,building,independently_confirmed_on_building,True,False,37.3775848,-121.9506821,,,,CA,Santa Clara,OpenStreetMap
dc_6e6524e46803,Silicon Valley SJC31,Digital Realty,operational,building,independently_confirmed_on_building,True,False,37.3722213,-121.9482625,,,,CA,Santa Clara,OpenStreetMap
dc_3b4009cb1bbc,,,operational,building,independently_confirmed_on_building,True,False,37.3797897,-121.9499034,,,,CA,Santa Clara,OpenStreetMap
dc_a0f51e098a77,Evocative Santa Clara SJC11,,operational,building,independently_confirmed_on_building,True,False,37.3895364,-121.9619398,,,,CA,Santa Clara,OpenStreetMap
dc_c161f3e80fbd,QTS Chicago,Quality Technology Services,operational,building,independently_confirmed_on_building,True,False,41.84219,-87.6689434,,,,IL,Cook,OpenStreetMap
dc_20809b86822e,Iron Mountain Data & Record Storage,Iron Mountain,operational,building,independently_confirmed_on_building,True,False,41.8487049,-87.6454577,,,,IL,Cook,OpenStreetMap
dc_10efe220e9f8,Data Storage Centers,,operational,building,independently_confirmed_on_building,True,False,33.4216928,-112.0343031,,,,AZ,Maricopa,OpenStreetMap
dc_c737f1f6d886,TierPoint Boston - Andover,TierPoint,operational,building,independently_confirmed_on_building,True,False,42.6857078,-71.2086024,,,,MA,Essex,OpenStreetMap
dc_277c0f0581fc,Markley Data Center,Markley Group,operational,building,independently_confirmed_on_building,True,False,42.6302832,-71.3045615,,,,MA,Middlesex,OpenStreetMap
dc_2705b2329455,Flexential Charlotte - South,Flexential,operational,building,independently_confirmed_on_building,True,False,35.1354147,-80.9368313,,,,NC,Mecklenburg,OpenStreetMap
dc_83ab1d091133,Digital Realty Data Center,Digital Realty,operational,building,independently_confirmed_on_building,True,False,33.3446197,-111.8992189,,,,AZ,Maricopa,OpenStreetMap
dc_d05d1d438fa4,,Comcast,operational,building,independently_confirmed_on_building,True,False,47.6933236,-122.3173172,,,,WA,King,OpenStreetMap
dc_7595c5d5e7dc,Equinix DC97,Equinix,operational,building,independently_confirmed_on_building,True,False,38.9615728,-77.3774178,,,,VA,Fairfax,OpenStreetMap
dc_957ede7b418e,Amazon IAD-55,Amazon Web Services,operational,building,independently_confirmed_on_building,True,False,38.815021,-77.64868,,,,VA,Prince William,OpenStreetMap
dc_2a2a32281bd3,CTI Biopharma,,operational,building,independently_confirmed_on_building,True,False,47.6177873,-122.356694,,,,WA,King,OpenStreetMap
dc_470dccd260a2,Westin Building,Digital Realty,operational,building,independently_confirmed_on_building,True,False,47.6143555,-122.3388637,,,,WA,King,OpenStreetMap
dc_07c6d715a86b,COPT Data Center,,operational,building,on_osm_building_single_source,False,True,38.7473099,-77.5318265,,,,VA,Prince William,OpenStreetMap
dc_716763afa8e2,Dell 350 Holger Way,,operational,building,on_osm_building_single_source,False,True,37.418381,-121.9431173,,,,CA,Santa Clara,OpenStreetMap
dc_4608aa9b25e5,SV Colo,SV Colo,operational,building,independently_confirmed_on_building,True,False,37.3642804,-121.9587878,,,,CA,Santa Clara,OpenStreetMap
dc_c006ad7d9563,Microsoft,Microsoft,operational,building,independently_confirmed_on_building,True,False,37.3621026,-121.9464586,,,,CA,Santa Clara,OpenStreetMap
dc_4b5149e761b0,OVH US East Vint Hill,,operational,building,independently_confirmed_on_building,True,False,38.7474201,-77.6744649,,,,VA,Fauquier,OpenStreetMap
dc_158b610b5b1a,NCAR-Wyoming Supercomputing Center,University Corporation for Atmospheric Research,operational,building,independently_confirmed_on_building,True,False,41.1287467,-104.8974315,,,,WY,Laramie,OpenStreetMap
dc_2e8820a1a344,The Seattle Times,H5 Data Centers,operational,building,independently_confirmed_on_building,True,False,47.6189539,-122.3365314,,,,WA,King,OpenStreetMap
dc_5b707782623f,Google Data Center The Dalles Oregon,Google,operational,building,on_osm_building_single_source,False,True,45.6320147,-121.2012021,,,,OR,Wasco,OpenStreetMap
dc_3f99881e922b,Segra Data Center,,operational,building,independently_confirmed_on_building,True,False,35.7249921,-78.6623632,,,,NC,Wake,OpenStreetMap
dc_585eb4a76a27,Equinix Ashburn DC2,Equinix,operational,building,on_osm_building_single_source,False,True,39.0163894,-77.4590691,,,,VA,Loudoun,OpenStreetMap
dc_1cbea47b2e15,H5 Data Centers Ashburn,H5 Data Centers,operational,building,independently_confirmed_on_building,True,False,39.0136782,-77.4517194,,,,VA,Loudoun,OpenStreetMap
dc_e797c79230f0,TierPoint Sioux Falls West Data Center,,operational,building,on_osm_building_single_source,False,True,43.6069708,-96.8091949,,,,SD,Minnehaha,OpenStreetMap
dc_7f9ae02ccc0f,Lumen McLean,Lumen Technologies,operational,building,on_osm_building_single_source,False,True,38.9200207,-77.2116187,,,,VA,Fairfax,OpenStreetMap
dc_2844929e4bbb,DataBank McLean IAD2,DataBank,operational,building,independently_confirmed_on_building,True,False,38.9199052,-77.213585,,,,VA,Fairfax,OpenStreetMap
dc_103846411abf,eBay,,operational,building,on_osm_building_single_source,False,True,40.563602,-112.0478049,,,,UT,Salt Lake,OpenStreetMap
dc_7dc82ae0dd2a,Equinix Chicago Data CH7,Equinix,operational,building,independently_confirmed_on_building,True,False,41.8125627,-87.9728504,,,,IL,DuPage,OpenStreetMap
dc_201440cfd9cd,PhoenixNAP,,operational,building,independently_confirmed_on_building,True,False,33.416077,-112.0094718,,,,AZ,Maricopa,OpenStreetMap
dc_bdfc6ad54e05,Merrill Lynch Data Center,Merrill Lynch,operational,building,on_osm_building_single_source,False,True,40.6073795,-74.1731669,,,,NY,Richmond,OpenStreetMap
dc_1bc2b9120fd7,Telehouse Teleport,Telehouse,operational,building,on_osm_building_single_source,False,True,40.6070367,-74.1749048,,,,NY,Richmond,OpenStreetMap
dc_dbe2757c8762,32 Avenue of the Americas,,operational,building,independently_confirmed_on_building,True,False,40.719994,-74.0045683,,,,NY,New York,OpenStreetMap
dc_0dc2e0d5e422,4120 Lafayette Center Drive,,operational,building,independently_confirmed_on_building,True,False,38.9059013,-77.4689724,,,,VA,Fairfax,OpenStreetMap
dc_574dbb1df5a6,Digital Realty,Digital Realty,operational,building,independently_confirmed_on_building,True,False,38.9101164,-77.4725921,,,,VA,Fairfax,OpenStreetMap
dc_3ea7dd208f28,Greenidge Power Plant and Data Center,Greenidge Generation Holdings Inc.,operational,building,on_osm_building_single_source,False,True,42.6793587,-76.9485811,,,,NY,Yates,OpenStreetMap
dc_dd62b4cfd23c,TierPoint,,operational,building,on_osm_building_single_source,False,True,38.6297601,-90.1964208,,,,MO,St. Louis,OpenStreetMap
dc_885116d1864f,Verizon,,operational,building,independently_confirmed_on_building,True,False,36.1447332,-115.0779284,,,,NV,Clark,OpenStreetMap
dc_8e1d55e66e4c,,,operational,building,independently_confirmed_on_building,True,False,29.4466626,-98.6405797,,,,TX,Bexar,OpenStreetMap
dc_e007921e0e2a,,,operational,building,independently_confirmed_on_building,True,False,29.4478888,-98.6411006,,,,TX,Bexar,OpenStreetMap
dc_be6fbb486171,Texas Cryptologic Center,National Security Agency,operational,building,independently_confirmed_on_building,True,False,29.4472024,-98.6409962,,,,TX,Bexar,OpenStreetMap
dc_07598d7e4ad6,CenturyLink,Lumen Technologies,operational,building,independently_confirmed_on_building,True,False,36.1437196,-115.0833851,,,,NV,Clark,OpenStreetMap
dc_7da4291ec019,,,operational,building,on_osm_building_single_source,False,True,33.096018,-96.6815422,,,,TX,Collin,OpenStreetMap
dc_82571b787ee6,Evoque Allen DA1,Centersquare,operational,building,on_osm_building_single_source,False,True,33.095083,-96.6837876,,,,TX,Collin,OpenStreetMap
dc_a40a7a61f53f,First National Technical Center,First National of Nebraska,operational,building,independently_confirmed_on_building,True,False,41.2614219,-95.9364982,,,,NE,Douglas,OpenStreetMap
dc_5a66fc0b92a1,Flexential - Richmond,Flexential,operational,building,independently_confirmed_on_building,True,False,37.6468902,-77.4386952,,,,VA,Henrico,OpenStreetMap
dc_7b085144d463,Amazon IAD-9,Amazon Web Services,operational,building,on_osm_building_single_source,False,True,38.8997236,-77.4534439,,,,VA,Fairfax,OpenStreetMap
dc_e973f22c27bf,Amazon IAD22,Amazon Web Services,operational,building,independently_confirmed_on_building,True,False,38.8979047,-77.4551032,,,,VA,Fairfax,OpenStreetMap
dc_5ac7881d70a2,Amazon IAD-1,Amazon Web Services,operational,building,independently_confirmed_on_building,True,False,38.8978637,-77.4540825,,,,VA,Fairfax,OpenStreetMap
dc_827fe89cbc5e,H5 Data Centers Virginia (4050),,operational,building,independently_confirmed_on_building,True,False,38.9092366,-77.4722656,,,,VA,Fairfax,OpenStreetMap
dc_edae91eea7f3,H5 Data Centers Virginia (4040),,operational,building,independently_confirmed_on_building,True,False,38.9097961,-77.4734544,,,,VA,Fairfax,OpenStreetMap
dc_6a1b8137ce48,ATI Solutions,,operational,building,independently_confirmed_on_building,True,False,38.908136,-77.4752182,,,,VA,Fairfax,OpenStreetMap
dc_a693333e3230,,,operational,building,independently_confirmed_on_building,True,False,38.750815,-77.1962716,,,,VA,Fairfax,OpenStreetMap
dc_d7d660e610a2,Menlo Digital MD-DC1,,operational,building,independently_confirmed_on_building,True,False,38.9271191,-77.4240727,,,,VA,Fairfax,OpenStreetMap
dc_e7b041f66911,Cox Data Center,,operational,building,independently_confirmed_on_building,True,False,34.0362568,-84.3195121,,,,GA,Fulton,OpenStreetMap
dc_8139e532c3de,QTS Atlanta Data Center 1,Quality Technology Services,operational,building,independently_confirmed_on_building,True,False,33.7776897,-84.4211544,,,,GA,Fulton,OpenStreetMap
dc_8582438c63c9,Csquare SFO3,Csquare,operational,building,independently_confirmed_on_building,True,False,37.3720542,-121.9860407,,,,CA,Santa Clara,OpenStreetMap
dc_bf1df6b842e9,Centersquare IAD3,Centersquare,operational,building,independently_confirmed_on_building,True,False,38.9809293,-77.4443786,,,,VA,Loudoun,OpenStreetMap
dc_84a15c5e48cb,Centersquare IAD2-A,Centersquare,operational,building,independently_confirmed_on_building,True,False,38.9844198,-77.4238096,,,,VA,Loudoun,OpenStreetMap
dc_23cf9d5d92b8,,CyrusOne,operational,building,independently_confirmed_on_building,True,False,38.9848664,-77.4256702,,,,VA,Loudoun,OpenStreetMap
dc_3a460ff301b5,Centersquare IAD2-B,Centersquare,operational,building,independently_confirmed_on_building,True,False,38.9836138,-77.4240848,,,,VA,Loudoun,OpenStreetMap
dc_825c795eeabf,Digital Realty Data Center,Digital Realty,operational,building,independently_confirmed_on_building,True,False,33.6570094,-84.4152195,,,,GA,Fulton,OpenStreetMap
dc_c5f760fd708b,Cyxtera (Digital Realty Trust) Citibank Data Center,Cyxtera,operational,building,independently_confirmed_on_building,True,False,40.7607798,-74.0257417,,,,NJ,Hudson,OpenStreetMap
dc_79ba191d0ddc,Digital Realty New Jersey EWR10,Digital Realty,operational,building,independently_confirmed_on_building,True,False,40.7618178,-74.0250281,,,,NJ,Hudson,OpenStreetMap
dc_5ce1bef66bfd,,,operational,building,on_osm_building_single_source,False,True,47.2462099,-119.8132256,,,,WA,Grant,OpenStreetMap
dc_e1ec41460f16,,,operational,building,on_osm_building_single_source,False,True,47.2476512,-119.8131864,,,,WA,Grant,OpenStreetMap
dc_3c54f97d781a,Intergate.Quincy,,operational,building,on_osm_building_single_source,False,True,47.246168,-119.815756,,,,WA,Grant,OpenStreetMap
dc_7c4e0d045a9c,Intergate Quincy Data Center,Sabey Data Centers,operational,campus_centroid,independently_confirmed_on_building,True,False,47.2453673,-119.8160897,,,,WA,Grant,OpenStreetMap
dc_5cc1bdab179a,H5 Data Center,Intuit,operational,campus_centroid,no_building_found_manual,False,True,47.2515867,-119.8188048,47.253535,-119.819212,218.8,WA,Grant,OpenStreetMap
dc_ae9448694997,H5 Data Centers Quincy,,operational,building,on_osm_building_single_source,False,True,47.2525738,-119.8196649,,,,WA,Grant,OpenStreetMap
dc_824340142f56,Yahoo Data Center,Yahoo,operational,campus_centroid,candidate_building_suggested,False,True,47.2467611,-119.8266159,47.246414,-119.827379,69.5,WA,Grant,OpenStreetMap
dc_37ffc1fb3121,,,operational,building,on_osm_building_single_source,False,True,47.2467356,-119.8288659,,,,WA,Grant,OpenStreetMap
dc_3e47ba6ea7d4,,,operational,building,on_osm_building_single_source,False,True,47.2459914,-119.8297912,,,,WA,Grant,OpenStreetMap
dc_dc8fb9b88484,CoreSite AT2 - Marietta Data Center,CoreSite,operational,building,independently_confirmed_on_building,True,False,33.9255145,-84.4816338,,,,GA,Cobb,OpenStreetMap
dc_64536bf4ec69,,,operational,building,on_osm_building_single_source,False,True,39.2901345,-94.6850641,,,,MO,Platte,OpenStreetMap
dc_a48459500fa0,Digital Realty San Francisco SFO10,Digital Realty,operational,building,on_osm_building_single_source,False,True,37.7236272,-122.3979543,,,,CA,San Francisco,OpenStreetMap
dc_e16c0048b956,33 Thomas Street,,operational,building,on_osm_building_single_source,False,True,40.7165207,-74.0059017,,,,NY,New York,OpenStreetMap
dc_2d220fd00df6,VentureData,VentureData,operational,building,independently_confirmed_on_building,True,False,43.8252286,-111.7820703,,,,ID,Madison,OpenStreetMap
dc_78a95ede9fd2,Cogent Data Center,"Cogent Communications, Inc.",operational,building,independently_confirmed_on_building,True,False,33.4002195,-112.0478786,,,,AZ,Maricopa,OpenStreetMap
dc_ddc8ce7e149c,CoreSpace Dallas,CoreSpace,operational,building,independently_confirmed_on_building,True,False,32.8175508,-96.873071,,,,TX,Dallas,OpenStreetMap
dc_7c8f0dd59535,Databank Denver (DEN5),,operational,building,independently_confirmed_on_building,True,False,39.5901315,-104.8469632,,,,CO,Arapahoe,OpenStreetMap
dc_70319b137cc4,zColo by Zayo,,operational,building,independently_confirmed_on_building,True,False,39.5913398,-104.8470655,,,,CO,Arapahoe,OpenStreetMap
dc_d4a1a829c73b,Intergate Seattle East Building 5,Sabey,operational,building,on_osm_building_single_source,False,True,47.491986,-122.2896655,,,,WA,King,OpenStreetMap
dc_a155358ecc51,Intergate Seattle East Building 3,Sabey,operational,building,independently_confirmed_on_building,True,False,47.4934798,-122.2904647,,,,WA,King,OpenStreetMap
dc_e1661b2a1f9b,Intergate Seattle East Building 4,Digital Realty,operational,building,independently_confirmed_on_building,True,False,47.4934032,-122.2888803,,,,WA,King,OpenStreetMap
dc_948f3bdc4314,Flexential Allentown data center,Flexential,operational,building,independently_confirmed_on_building,True,False,40.6356953,-75.4575733,,,,PA,Lehigh,OpenStreetMap
dc_d2de7906afe4,Digital Realty ACC4,Digital Realty,operational,building,independently_confirmed_on_building,True,False,39.0178592,-77.4624708,,,,VA,Loudoun,OpenStreetMap
dc_fc796ff9d529,Equinix Ashburn DC1,Equinix,operational,building,independently_confirmed_on_building,True,False,39.0155577,-77.4603281,,,,VA,Loudoun,OpenStreetMap
dc_eb543ca87716,Equinix Ashburn DC5,Equinix,operational,building,on_osm_building_single_source,False,True,39.0159646,-77.4612225,,,,VA,Loudoun,OpenStreetMap
dc_61423542fa9a,Equinix Ashburn DC11,Equinix,operational,building,independently_confirmed_on_building,True,False,39.0148911,-77.4587995,,,,VA,Loudoun,OpenStreetMap
dc_131aa5f35967,Equinix Ashburn DC3,Equinix,operational,building,independently_confirmed_on_building,True,False,39.0220154,-77.460235,,,,VA,Loudoun,OpenStreetMap
dc_b50a00a06b55,Digital Realty ACC3,Digital Realty,operational,building,independently_confirmed_on_building,True,False,39.01988,-77.4598033,,,,VA,Loudoun,OpenStreetMap
dc_0d9b2c88b783,CoreSite SV2,"CoreSite Real Estate 1656 McCarthy, L.P.",operational,building,independently_confirmed_on_building,True,False,37.4056857,-121.9162604,,,,CA,Santa Clara,OpenStreetMap
dc_49375bfb4e76,Amazon IAD76,Amazon Web Services,operational,building,independently_confirmed_on_building,True,False,38.9937936,-77.450509,,,,VA,Loudoun,OpenStreetMap
dc_2e4b032d0260,Amazon IAD12,Amazon Web Services,operational,building,independently_confirmed_on_building,True,False,38.988724,-77.447671,,,,VA,Loudoun,OpenStreetMap
dc_6bcbbbcd10b1,Digital Realty ACC5,Digital Realty,operational,building,independently_confirmed_on_building,True,False,39.0201584,-77.4631033,,,,VA,Loudoun,OpenStreetMap
dc_96abd1a194f0,Digital Realty ACC6,Digital Realty,operational,building,independently_confirmed_on_building,True,False,39.0210261,-77.4635509,,,,VA,Loudoun,OpenStreetMap
dc_2a70a9e5cc7b,Level 3 Ashburn,Lumen Technologies,operational,building,independently_confirmed_on_building,True,False,39.022182,-77.4576094,,,,VA,Loudoun,OpenStreetMap
dc_883a5d1e99b8,Centersquare IAD4-B,Centersquare,operational,building,independently_confirmed_on_building,True,False,39.0221679,-77.4535946,,,,VA,Loudoun,OpenStreetMap
dc_69fd86e9906c,NTT Ashburn VA1 Data Center,NTT,operational,building,independently_confirmed_on_building,True,False,39.0227436,-77.4548911,,,,VA,Loudoun,OpenStreetMap
dc_ae3e7c1ac44d,Digital Realty Phoenix PHX15,Digital Realty,operational,building,independently_confirmed_on_building,True,False,33.2749228,-111.8866379,,,,AZ,Maricopa,OpenStreetMap
dc_c9783b27622b,H5 Phoenix,H5,operational,building,independently_confirmed_on_building,True,False,33.2769993,-111.8858906,,,,AZ,Maricopa,OpenStreetMap
dc_4f768adc7131,CyrusOne PHX1,CyrusOne,operational,building,independently_confirmed_on_building,True,False,33.2708783,-111.8819954,,,,AZ,Maricopa,OpenStreetMap
dc_81a17a603597,Equinix DC13,Equinix,operational,building,independently_confirmed_on_building,True,False,39.0125623,-77.4754047,,,,VA,Loudoun,OpenStreetMap
dc_631371da65c8,Digital Realty Northern Virginia IAD14,Digital Realty,operational,building,independently_confirmed_on_building,True,False,39.0033364,-77.4870935,,,,VA,Loudoun,OpenStreetMap
dc_3d20ef20699e,Amazon Web Services Building C,Amazon Web Services,operational,building,independently_confirmed_on_building,True,False,39.0027516,-77.4854486,,,,VA,Loudoun,OpenStreetMap
dc_2e787555193c,Digital Realty Northern Virginia IAD12,Digital Realty,operational,building,independently_confirmed_on_building,True,False,39.0020229,-77.4833469,,,,VA,Loudoun,OpenStreetMap
dc_832cb24853a8,Digital Realty Building A,Digital Realty,operational,building,independently_confirmed_on_building,True,False,39.0027414,-77.4819572,,,,VA,Loudoun,OpenStreetMap
dc_524910b48583,Digital Realty Northern Virginia IAD24,Digital Realty,operational,building,independently_confirmed_on_building,True,False,39.0043186,-77.484415,,,,VA,Loudoun,OpenStreetMap
dc_087c9c57a7c0,Databank Ashburn IAD1,DataBank,operational,building,on_osm_building_single_source,False,True,39.0154881,-77.4821555,,,,VA,Loudoun,OpenStreetMap
dc_ec2547a1d26b,DataBank Ashburn IAD4,DataBank,operational,building,independently_confirmed_on_building,True,False,39.0154867,-77.4833483,,,,VA,Loudoun,OpenStreetMap
dc_3f486e9e678a,Apple Data Center,Apple Inc.,operational,building,independently_confirmed_on_building,True,False,33.3470334,-111.6041418,,,,AZ,Maricopa,OpenStreetMap
dc_381df857e073,VISA,VISA,operational,building,independently_confirmed_on_building,True,False,42.2167763,-87.9529303,,,,IL,Lake,OpenStreetMap
dc_dd43c1afe709,John F. Simms Building,SONM,operational,building,independently_confirmed_on_building,True,False,35.6724585,-105.9565798,,,,NM,Santa Fe,OpenStreetMap
dc_d49059d0004a,Lumen San Antonio 2,Lumen Technologies,operational,building,independently_confirmed_on_building,True,False,29.4382791,-98.5065217,,,,TX,Bexar,OpenStreetMap
dc_a3ed205f0651,Meta,Meta,operational,building,independently_confirmed_on_building,True,False,44.2959422,-120.8872741,,,,OR,Crook,OpenStreetMap
dc_0b58b9cd7bf3,Adobe Data Center,,operational,building,independently_confirmed_on_building,True,False,45.5501967,-122.9316727,,,,OR,Washington,OpenStreetMap
dc_1935437c7e01,TGN Hillsboro,Tata Communications,operational,building,on_osm_building_single_source,False,True,45.5465136,-122.893791,,,,OR,Washington,OpenStreetMap
dc_3fef4ef0197e,Stack Infrastructure - POR02,Stack Infrastructure,operational,building,on_osm_building_single_source,False,True,45.5473758,-122.8973869,,,,OR,Washington,OpenStreetMap
dc_526c2a45ec28,Oracle,,operational,building,on_osm_building_single_source,False,True,45.5439148,-122.896479,,,,OR,Washington,OpenStreetMap
dc_88ceb844bdf4,Digital Realty PDX10 Data Center,Digital Realty,operational,building,independently_confirmed_on_building,True,False,45.5476065,-122.8919518,,,,OR,Washington,OpenStreetMap
dc_e1986068387b,Flexential Portland - Hillsboro 1,Flexential,operational,building,on_osm_building_single_source,False,True,45.5498253,-122.8908454,,,,OR,Washington,OpenStreetMap
dc_084826c020f7,Flexential Portland - Hillsboro 1,Flexential,operational,building,on_osm_building_single_source,False,True,45.550371,-122.892151,,,,OR,Washington,OpenStreetMap
dc_a58e2ed3ead5,Flexential Louisville - East,Flexential,operational,building,independently_confirmed_on_building,True,False,38.2771906,-85.5072402,,,,KY,Jefferson,OpenStreetMap
dc_9996d2a0e21d,Flexential Louisville - Downtown,Flexential,operational,building,independently_confirmed_on_building,True,False,38.242501,-85.733336,,,,KY,Jefferson,OpenStreetMap
dc_570dcd095704,Verizon Hillsboro (Tanasbourne) Data Center,Verizon Business,operational,building,independently_confirmed_on_building,True,False,45.5446185,-122.882338,,,,OR,Washington,OpenStreetMap
dc_805132b8f582,Terminal Commerce Building,,operational,building,on_osm_building_single_source,False,True,39.9598116,-75.1608332,,,,PA,Philadelphia,OpenStreetMap
dc_cc28d7536dbd,TierPoint,,operational,building,independently_confirmed_on_building,True,False,47.6719149,-117.0959323,,,,WA,Spokane,OpenStreetMap
dc_50050da00f9b,Baltimore Technology Park,,operational,building,independently_confirmed_on_building,True,False,39.275367,-76.62551,,,,MD,Baltimore,OpenStreetMap
dc_479fe0de6655,Intergate Seattle West Building C,Sabey,operational,building,independently_confirmed_on_building,True,False,47.494123,-122.2943972,,,,WA,King,OpenStreetMap
dc_556a64184f4a,Intergate Seattle West Building B,Sabey,operational,building,independently_confirmed_on_building,True,False,47.4930744,-122.2936837,,,,WA,King,OpenStreetMap
dc_e00eb2aece58,Intergate Seattle West Building A,Sabey,operational,building,independently_confirmed_on_building,True,False,47.4921833,-122.2933176,,,,WA,King,OpenStreetMap
dc_5f6777919547,Vantage WA11,,operational,building,on_osm_building_single_source,False,True,47.2501646,-119.8144903,,,,WA,Grant,OpenStreetMap
dc_69b15e769d4a,NTT Data Quincy,NTT,operational,building,on_osm_building_single_source,False,True,47.2435798,-119.8657481,,,,WA,Grant,OpenStreetMap
dc_4ad26dcfcc07,,,operational,building,independently_confirmed_on_building,True,False,47.2388186,-119.8593592,,,,WA,Grant,OpenStreetMap
dc_31e1262f634a,,,operational,building,independently_confirmed_on_building,True,False,47.2382623,-119.8593664,,,,WA,Grant,OpenStreetMap
dc_a6f917b12861,Geneseo Communications Inc,,operational,building,independently_confirmed_on_building,True,False,41.5502695,-90.4824093,,,,IA,Scott,OpenStreetMap
dc_905ee378fa5e,,,operational,building,independently_confirmed_on_building,True,False,41.9053402,-88.2195062,,,,IL,DuPage,OpenStreetMap
dc_c4556817118d,,,operational,building,independently_confirmed_on_building,True,False,40.5528396,-74.4566865,,,,NJ,Middlesex,OpenStreetMap
dc_ffd9669a659e,,Verizon Wireless,operational,building,independently_confirmed_on_building,True,False,39.7171971,-85.941411,,,,IN,Hancock,OpenStreetMap
dc_79462a7aea36,,,operational,building,independently_confirmed_on_building,True,False,40.7847354,-74.0643545,,,,NJ,Hudson,OpenStreetMap
dc_6a57259367cd,Flexential Salt Lake City - South Valley,Flexential,operational,building,on_osm_building_single_source,False,True,40.6203519,-111.986047,,,,UT,Salt Lake,OpenStreetMap
dc_d4b9ccf16584,Digital Realty Silicon Valley SC1,Digital Realty,operational,building,independently_confirmed_on_building,True,False,37.3616469,-121.9439784,,,,CA,Santa Clara,OpenStreetMap
dc_f4bc65542ad7,QES Computers,,operational,building,on_osm_building_single_source,False,True,37.6994753,-121.9037995,,,,CA,Alameda,OpenStreetMap
dc_038b8645007d,Equinix SE3 Data Center,Equinix,operational,building,independently_confirmed_on_building,True,False,47.6144229,-122.3397427,,,,WA,King,OpenStreetMap
dc_b56773cdbfc2,QTS Piscataway Data Center,Quality Technology Services,operational,building,on_osm_building_single_source,False,True,40.5569431,-74.4839173,,,,NJ,Middlesex,OpenStreetMap
dc_5fa783970111,AiNET,,operational,building,independently_confirmed_on_building,True,False,39.0528404,-76.9259248,,,,MD,Prince George's,OpenStreetMap
dc_f08ca5bf1c62,Microsoft,Microsoft,operational,building,independently_confirmed_on_building,True,False,29.47827,-98.6906853,,,,TX,Bexar,OpenStreetMap
dc_89729ff0b85d,Microsoft San Antonio,Microsoft,operational,building,independently_confirmed_on_building,True,False,29.479881,-98.6925337,,,,TX,Bexar,OpenStreetMap
dc_dfd792c8e17d,Microsoft,Microsoft,operational,building,independently_confirmed_on_building,True,False,29.4810535,-98.6965704,,,,TX,Bexar,OpenStreetMap
dc_2d99d5205c9e,Lumen Norristown,Lumen Technologies,operational,building,independently_confirmed_on_building,True,False,40.127067,-75.4086586,,,,PA,Montgomery,OpenStreetMap
dc_d85b37adc53e,Equinix DC7,Equinix,operational,building,independently_confirmed_on_building,True,False,38.9091392,-77.2205568,,,,VA,Fairfax,OpenStreetMap
dc_11f7728742a2,Element Critical VA1,,operational,building,independently_confirmed_on_building,True,False,38.9083675,-77.2197442,,,,VA,Fairfax,OpenStreetMap
dc_40672a8077dd,Pittock Block,,operational,building,independently_confirmed_on_building,True,False,45.5215436,-122.6807041,,,,OR,Multnomah,OpenStreetMap
dc_db8f9132c159,Cisco Allen,,operational,building,on_osm_building_single_source,False,True,33.1359616,-96.6609921,,,,TX,Collin,OpenStreetMap
dc_f88ba23a982f,Meta,Meta,operational,building,on_osm_building_single_source,False,True,44.2949725,-120.8839727,,,,OR,Crook,OpenStreetMap
dc_d7bbe1a551ea,CSSNW Bellingham,CSS Communications,operational,building,independently_confirmed_on_building,True,False,48.75726,-122.4805485,,,,WA,Whatcom,OpenStreetMap
dc_0bca91742046,EdgeConneX CHI02,EdgeConneX,operational,building,independently_confirmed_on_building,True,False,42.0014952,-87.9525624,,,,IL,Cook,OpenStreetMap
dc_b42253a6f4e0,Equinix Chicago CH3,Equinix,operational,building,independently_confirmed_on_building,True,False,42.001221,-87.9551997,,,,IL,Cook,OpenStreetMap
dc_c5239980dbb9,Element Critical CH2,Element Critical,operational,building,independently_confirmed_on_building,True,False,41.9742269,-87.9671756,,,,IL,DuPage,OpenStreetMap
dc_3ae192f6e1fc,Centersquare Elk Grove Village Data Center Campus ORD2,Centersquare,operational,building,independently_confirmed_on_building,True,False,41.9920884,-87.9580136,,,,IL,DuPage,OpenStreetMap
dc_5476035b6014,Flexential Denver - Englewood,Flexential,operational,building,on_osm_building_single_source,False,True,39.558994,-104.8375559,,,,CO,Douglas,OpenStreetMap
dc_101d7e8f8cd1,EdgeConneX Detroit DET01,EdgeConneX,operational,building,independently_confirmed_on_building,True,False,42.4476693,-83.2626336,,,,MI,Oakland,OpenStreetMap
dc_f905447e5849,Lumen Austin 3,Lumen Technologies,operational,building,independently_confirmed_on_building,True,False,30.261396,-97.7235975,,,,TX,Travis,OpenStreetMap
dc_3fabf9be3929,Alpheus DataCenter,Alpheus,operational,building,on_osm_building_single_source,False,True,30.2610525,-97.722122,,,,TX,Travis,OpenStreetMap
dc_c7e6eda1a3c3,Digital Realty Austin AUS11,,operational,building,on_osm_building_single_source,False,True,30.212156,-97.6957555,,,,TX,Travis,OpenStreetMap
dc_fe38ae01b067,LightEdge Austin II,,operational,building,on_osm_building_single_source,False,True,30.2006765,-97.707046,,,,TX,Travis,OpenStreetMap
dc_b89ba8f2218f,CyrusOne Austin Data Center II,,operational,building,on_osm_building_single_source,False,True,30.2059205,-97.6979506,,,,TX,Travis,OpenStreetMap
dc_37e6baf63753,Data Foundry Austin 1 Data Center,,operational,building,on_osm_building_single_source,False,True,30.215504,-97.696074,,,,TX,Travis,OpenStreetMap
dc_cc285f70fcb8,VISA Data Center,,operational,building,on_osm_building_single_source,False,True,39.0487658,-77.4453971,,,,VA,Loudoun,OpenStreetMap
dc_25afe0ab10d4,LightEdge Austin I,,operational,building,on_osm_building_single_source,False,True,30.2142972,-97.7126675,,,,TX,Travis,OpenStreetMap
dc_cdbcaaff9db4,Skybox Chicago I,Skybox,operational,building,independently_confirmed_on_building,True,False,41.9936612,-87.973521,,,,IL,Cook,OpenStreetMap
dc_1e7f741f9284,Hurricane Electric Fremont 1,Hurricane Electric,operational,building,independently_confirmed_on_building,True,False,37.4898848,-121.9310239,,,,CA,Alameda,OpenStreetMap
dc_27080243001e,,Aligned Data Centers,operational,building,on_osm_building_single_source,False,True,41.4321977,-82.7189574,,,,OH,Erie,OpenStreetMap
dc_938aec8e77ee,Lumen Austin 1,,operational,building,on_osm_building_single_source,False,True,30.1965,-97.7124025,,,,TX,Travis,OpenStreetMap
dc_6b99d502d133,Data Foundry - Texas 1,,operational,building,on_osm_building_single_source,False,True,30.198907,-97.7137835,,,,TX,Travis,OpenStreetMap
dc_8411b70ee9f3,XO Fremont,XO,operational,building,independently_confirmed_on_building,True,False,37.4753251,-121.9221068,,,,CA,Alameda,OpenStreetMap
dc_9a40b00a652d,Hurricane Electric Fremont 2,Hurricane Electric,operational,building,independently_confirmed_on_building,True,False,37.471834,-121.9202907,,,,CA,Alameda,OpenStreetMap
dc_e5c5994d451d,Element Critical,,operational,building,on_osm_building_single_source,False,True,30.3428035,-97.6961735,,,,TX,Travis,OpenStreetMap
dc_a89104d1dea0,Element Critical CH1,Element Critical,operational,building,independently_confirmed_on_building,True,False,41.9757324,-87.9646913,,,,IL,DuPage,OpenStreetMap
dc_b98bb7d5812f,165 Halsey / Equinix NY1 / Databank EWR1,Tishman,operational,building,independently_confirmed_on_building,True,False,40.7367304,-74.1738875,,,,NJ,Essex,OpenStreetMap
dc_e3d250e7b140,QTS Suwanee Data Center 1,Quality Technology Services,operational,building,on_osm_building_single_source,False,True,34.0353956,-84.0611057,,,,GA,Gwinnett,OpenStreetMap
dc_baa85d8160d3,QTS Suwanee Data Center 2,Quality Technology Services,operational,building,on_osm_building_single_source,False,True,34.0370622,-84.0576958,,,,GA,Gwinnett,OpenStreetMap
dc_a94598173ea8,TierPoint Little Rock,,operational,building,on_osm_building_single_source,False,True,34.7562396,-92.4447234,,,,AR,Pulaski,OpenStreetMap
dc_6553f43d85f7,Equinix SV6,Equinix,operational,building,independently_confirmed_on_building,True,False,37.3996265,-122.0145584,,,,CA,Santa Clara,OpenStreetMap
dc_d493afe55f15,Flexential Atlanta - Norcross,Flexential,operational,building,independently_confirmed_on_building,True,False,33.9547396,-84.1985246,,,,GA,Gwinnett,OpenStreetMap
dc_bd791a1d5428,Centersquare Lynnwood SE1,Centersquare,operational,building,independently_confirmed_on_building,True,False,47.841809,-122.3016653,,,,WA,Snohomish,OpenStreetMap
dc_29fd6bdf13b7,Apple,Apple Inc.,operational,building,on_osm_building_single_source,False,True,44.2894155,-120.8750774,,,,OR,Crook,OpenStreetMap
dc_4f0e6f5bde7c,Walmart Colorado Data Center,Walmart,operational,building,on_osm_building_single_source,False,True,38.9857326,-104.787263,,,,CO,El Paso,OpenStreetMap
dc_d9ae28f8917b,Verizon,,operational,building,on_osm_building_single_source,False,True,41.338343,-96.0278024,,,,NE,Douglas,OpenStreetMap
dc_9c33e7edb393,Verizon,,operational,building,on_osm_building_single_source,False,True,41.3384444,-96.0286183,,,,NE,Douglas,OpenStreetMap
dc_3c8e7ae84da8,George C. Wallace Alabama Supercomputer Center,Alabama Supercomputer Authority,operational,building,on_osm_building_single_source,False,True,34.73654,-86.6731017,,,,AL,Madison,OpenStreetMap
dc_a83a8d15a315,Equinix,Equinix,operational,building,on_osm_building_single_source,False,True,33.8507525,-118.3040815,,,,CA,Los Angeles,OpenStreetMap
dc_543c04d60b95,Digital Realty Chicago ORD12,Digital Realty,operational,building,independently_confirmed_on_building,True,False,41.9283557,-87.8592545,,,,IL,Cook,OpenStreetMap
dc_b5ee50bca064,,,operational,building,independently_confirmed_on_building,True,False,47.2376691,-119.8646264,,,,WA,Grant,OpenStreetMap
dc_36b4acad16e5,Microsoft,Microsoft,operational,building,independently_confirmed_on_building,True,False,47.2394776,-119.8830092,,,,WA,Grant,OpenStreetMap
dc_a3e6b266b930,Microsoft,Microsoft,operational,building,independently_confirmed_on_building,True,False,47.2385754,-119.8830801,,,,WA,Grant,OpenStreetMap
dc_c738a087d2cb,,,operational,building,on_osm_building_single_source,False,True,47.2394877,-119.8594059,,,,WA,Grant,OpenStreetMap
dc_7b42f550217b,Microsoft CYS Datacenter,Microsoft,operational,campus_centroid,no_building_found_manual,False,True,41.1225882,-104.9035166,41.123797,-104.904016,140.6,WY,Laramie,OpenStreetMap
dc_6be68fa9c112,,,operational,building,on_osm_building_single_source,False,True,41.1262938,-104.9018528,,,,WY,Laramie,OpenStreetMap
dc_506d216f297e,KOMO Plaza East,,operational,building,independently_confirmed_on_building,True,False,47.6192326,-122.3482873,,,,WA,King,OpenStreetMap
dc_0dcf4693d966,Fidelity,Fidelity,operational,building,independently_confirmed_on_building,True,False,41.1655243,-96.0833669,,,,NE,Sarpy,OpenStreetMap
dc_efb9968b09e4,,Centurylink,operational,building,on_osm_building_single_source,False,True,33.9177276,-118.3862234,,,,CA,Los Angeles,OpenStreetMap
dc_4c87d97ffa9a,Serverfarm - LAX1,Serverfarm LLC.,operational,building,on_osm_building_single_source,False,True,33.9217415,-118.3864588,,,,CA,Los Angeles,OpenStreetMap
dc_abc1bc37e941,DRT LAX12,Digital Realty,operational,building,on_osm_building_single_source,False,True,33.9156593,-118.3846186,,,,CA,Los Angeles,OpenStreetMap
dc_961fc1bc0c89,Google - Thornton,Google,operational,building,independently_confirmed_on_building,True,False,39.922465,-104.9834252,,,,CO,Adams,OpenStreetMap
dc_5b5256c05523,DRT LAX10,,operational,building,on_osm_building_single_source,False,True,34.0473304,-118.25751,,,,CA,Los Angeles,OpenStreetMap
dc_f40c26b1ceb4,One Wilshire,,operational,building,on_osm_building_single_source,False,True,34.0478876,-118.2555409,,,,CA,Los Angeles,OpenStreetMap
dc_ddf294b48205,,Bank of America,operational,building,on_osm_building_single_source,False,True,37.4943952,-77.2374867,,,,VA,Henrico,OpenStreetMap
dc_66e879b37950,"CyrusOne NVA1, NVA2 & NVA3",CyrusOne,operational,building,independently_confirmed_on_building,True,False,39.0259023,-77.4144697,,,,VA,Loudoun,OpenStreetMap
dc_6a2a35ba07d2,NAP of the Americas,,operational,building,on_osm_building_single_source,False,True,25.7823886,-80.1930798,,,,FL,Miami-Dade,OpenStreetMap
dc_cc1e6f846f5c,CoreSite - Miami (MI1),,operational,building,on_osm_building_single_source,False,True,25.7975445,-80.2300338,,,,FL,Miami-Dade,OpenStreetMap
dc_5127aa265ade,CyrusOne NVA5,CyrusOne,operational,building,on_osm_building_single_source,False,True,39.024356,-77.4341,,,,VA,Loudoun,OpenStreetMap
dc_7829f587ad00,Microsoft,Microsoft,operational,building,on_osm_building_single_source,False,True,41.5406093,-93.8248434,,,,IA,Dallas,OpenStreetMap
dc_a16fdadb09e8,Facebook Altoona Data Center 1,Meta,operational,building,independently_confirmed_on_building,True,False,41.6642482,-93.5147581,,,,IA,Polk,OpenStreetMap
dc_ce7c1d42d89e,Facebook Altoona Data Center 2,Meta,operational,building,independently_confirmed_on_building,True,False,41.6655118,-93.5082089,,,,IA,Polk,OpenStreetMap
dc_fdae777cf363,Virginia Information Technologies Agency,,operational,building,independently_confirmed_on_building,True,False,37.3607028,-77.3318065,,,,VA,Chesterfield,OpenStreetMap
dc_3804fbe962f8,Lumen Technologies,,operational,building,on_osm_building_single_source,False,True,33.7167763,-117.8057759,,,,CA,Orange,OpenStreetMap
dc_87fe0ed9bf1c,Lumen,Lumen Technologies,operational,building,independently_confirmed_on_building,True,False,47.6542257,-117.4200007,,,,WA,Spokane,OpenStreetMap
dc_fe7cb3e8830f,,,operational,building,independently_confirmed_on_building,True,False,43.0672971,-89.436704,,,,WI,Dane,OpenStreetMap
dc_1674d44d30cc,Equinix CU2,Equinix,operational,building,independently_confirmed_on_building,True,False,38.4548439,-77.9781318,,,,VA,Culpeper,OpenStreetMap
dc_f8d214368884,DataPipe Silicon Valley One,,operational,building,independently_confirmed_on_building,True,False,37.3336326,-121.8879639,,,,CA,Santa Clara,OpenStreetMap
dc_042da0f1f99d,CoreSite Secaucus Campus,CoreSite,operational,building,independently_confirmed_on_building,True,False,40.7841733,-74.0655505,,,,NJ,Hudson,OpenStreetMap
dc_01f485c24f90,Evocative Secaucus,Evocative,operational,building,independently_confirmed_on_building,True,False,40.787552,-74.0680502,,,,NJ,Hudson,OpenStreetMap
dc_f2511fb5508c,BT Radianz: 492 River Road,bt,operational,building,independently_confirmed_on_building,True,False,40.8214542,-74.1341867,,,,NJ,Essex,OpenStreetMap
dc_f9e6c86b33a9,Time Warner Datacenter,,operational,building,independently_confirmed_on_building,True,False,39.5989606,-104.8603785,,,,CO,Arapahoe,OpenStreetMap
dc_3afce9f03886,Time Warner Datacenter,,operational,building,independently_confirmed_on_building,True,False,39.5999328,-104.86017,,,,CO,Arapahoe,OpenStreetMap
dc_97311ae7d1ad,CyrusOne Austin Data Center III,,operational,building,independently_confirmed_on_building,True,False,30.2070062,-97.7011317,,,,TX,Travis,OpenStreetMap
dc_7db3bba7c9ec,Apollo Cable Landing Station,Apollo,operational,building,independently_confirmed_on_building,True,False,40.1570435,-74.101582,,,,NJ,Monmouth,OpenStreetMap
dc_96450fb1f38e,Cable & Wireless Cable Landing Station,,operational,building,independently_confirmed_on_building,True,False,40.8436519,-72.8833757,,,,NY,Suffolk,OpenStreetMap
dc_e4baea386a94,Equinix Ashburn DC10,Equinix,operational,building,independently_confirmed_on_building,True,False,39.0210047,-77.4514888,,,,VA,Loudoun,OpenStreetMap
dc_d92a5dd0e5f6,Amazon Web Services Datacenter Complex,Amazon Web Services,operational,building,on_osm_building_single_source,False,True,39.0263311,-77.4516315,,,,VA,Loudoun,OpenStreetMap
dc_1ef09805fae1,Amazon Web Services,Amazon Web Services,operational,building,independently_confirmed_on_building,True,False,39.0288072,-77.4588379,,,,VA,Loudoun,OpenStreetMap
dc_9351a2fe0177,Amazon IAD-61,Amazon Web Services,operational,building,independently_confirmed_on_building,True,False,38.9158051,-77.4919869,,,,VA,Loudoun,OpenStreetMap
dc_a1ec41fa9483,Amazon IAD58,Amazon Web Services,operational,building,on_osm_building_single_source,False,True,38.9865152,-77.4422565,,,,VA,Loudoun,OpenStreetMap
dc_df61119311e7,Amazon IAD51,Amazon Web Services,operational,building,independently_confirmed_on_building,True,False,38.9914123,-77.4365107,,,,VA,Loudoun,OpenStreetMap
dc_dd2e714c19e0,Amazon IAD56,Amazon Web Services,operational,building,on_osm_building_single_source,False,True,38.9905701,-77.4370586,,,,VA,Loudoun,OpenStreetMap
dc_c20b2302aff2,Amazon IAD16,Amazon Web Services,operational,building,independently_confirmed_on_building,True,False,38.9906864,-77.4488397,,,,VA,Loudoun,OpenStreetMap
dc_dee61d200c43,Amazon IAD15,Amazon Web Services,operational,building,independently_confirmed_on_building,True,False,38.991708,-77.4485641,,,,VA,Loudoun,OpenStreetMap
dc_ab293c583bc3,Amazon IAD14,Amazon Web Services,operational,building,independently_confirmed_on_building,True,False,38.7898846,-77.5482287,,,,VA,Prince William,OpenStreetMap
dc_71354fe4b02d,Amazon IAD59,Amazon Web Services,operational,building,independently_confirmed_on_building,True,False,38.7921874,-77.5484673,,,,VA,Prince William,OpenStreetMap
dc_c4a43ff19d8c,Amazon IAD52,Amazon Web Services,operational,building,independently_confirmed_on_building,True,False,38.7911185,-77.5483863,,,,VA,Prince William,OpenStreetMap
dc_af33dfbf5532,Amazon Web Services Datacenter Complex,Amazon Web Services,operational,building,independently_confirmed_on_building,True,False,40.0937454,-82.7518317,,,,OH,Licking,OpenStreetMap
dc_2f2def1e8828,Amazon AWS: Hilliard Data Center,Amazon Web Services us-east-2 datacenter,operational,campus_centroid,independently_confirmed_on_building,True,False,40.0598657,-83.1342839,,,,OH,Franklin,OpenStreetMap
dc_bd0c4df6edc8,Amazon Web Services,Amazon Web Services,operational,building,on_osm_building_single_source,False,True,45.9158356,-119.2663235,,,,OR,Umatilla,OpenStreetMap
dc_8b5c9190f762,Amazon Web Services,Amazon Web Services,operational,building,independently_confirmed_on_building,True,False,45.8410032,-119.6527688,,,,OR,Morrow,OpenStreetMap
dc_c3cd81b92a8d,Amazon Web Services,Amazon Web Services,operational,building,independently_confirmed_on_building,True,False,45.8522387,-119.6299007,,,,OR,Morrow,OpenStreetMap
dc_ee2be26aa83a,Amazon Web Services,Amazon Web Services,operational,building,on_osm_building_single_source,False,True,45.8508808,-119.6305237,,,,OR,Morrow,OpenStreetMap
dc_b8308dcc18bb,Equinix San Jose SV3,Equinix,operational,building,on_osm_building_single_source,False,True,37.388274,-121.8884463,,,,CA,Santa Clara,OpenStreetMap
dc_6bb9d780dce7,365 Main Street Data Center,Digital Realty,operational,building,on_osm_building_single_source,False,True,37.788731,-122.390469,,,,CA,San Francisco,OpenStreetMap
dc_fa3d9251f7ad,Meta,Meta,operational,building,on_osm_building_single_source,False,True,35.3142602,-81.8220553,,,,NC,Rutherford,OpenStreetMap
dc_1aaac235c2f7,Meta,Meta,operational,building,on_osm_building_single_source,False,True,35.3173849,-81.8262484,,,,NC,Rutherford,OpenStreetMap
dc_b957334fcb5a,,NTT Limited,operational,building,on_osm_building_single_source,False,True,37.4039641,-121.8892308,,,,CA,Santa Clara,OpenStreetMap
dc_68281ce20aef,Csquare SFO1,Csquare,operational,building,independently_confirmed_on_building,True,False,37.37045,-121.9698252,,,,CA,Santa Clara,OpenStreetMap
dc_973ebac1cb09,,Vantage,operational,building,independently_confirmed_on_building,True,False,37.3717787,-121.9725052,,,,CA,Santa Clara,OpenStreetMap
dc_13bf0cfc3848,Intergate Columbia B,Sabey Data Centers,operational,building,independently_confirmed_on_building,True,False,47.407164,-120.1875239,,,,WA,Douglas,OpenStreetMap
dc_5c8f14e5f3fc,Intergate Columbia A,Sabey Data Centers,operational,building,independently_confirmed_on_building,True,False,47.4086205,-120.1893981,,,,WA,Douglas,OpenStreetMap
dc_2418d90f9371,Intergate Columbia,Sabey Data Centers,operational,building,on_osm_building_single_source,False,True,47.4075849,-120.1915785,,,,WA,Douglas,OpenStreetMap
dc_82d5bf536c6b,QTS Ashburn-Moran,Quality Technology Services,operational,building,independently_confirmed_on_building,True,False,38.9942215,-77.4482013,,,,VA,Loudoun,OpenStreetMap
dc_2a3cef084baa,Centersquare IAD4-A,Centersquare,operational,building,independently_confirmed_on_building,True,False,39.0217816,-77.4527978,,,,VA,Loudoun,OpenStreetMap
dc_76d8a96e6398,AWS Building E,Amazon Web Services,operational,building,independently_confirmed_on_building,True,False,39.0050516,-77.4856124,,,,VA,Loudoun,OpenStreetMap
dc_783ed530397e,Digital Realty New Jersey EWR20,Digital Realty,operational,building,independently_confirmed_on_building,True,False,40.8299279,-74.1267496,,,,NJ,Passaic,OpenStreetMap
dc_4fe04b8d0451,CyrusOne Somerset,CyrusOne,operational,building,independently_confirmed_on_building,True,False,40.5379623,-74.5457225,,,,NJ,Somerset,OpenStreetMap
dc_f56907de3951,BNY Mellon Somerset,,operational,building,independently_confirmed_on_building,True,False,40.535869,-74.5534315,,,,NJ,Somerset,OpenStreetMap
dc_afac4d785392,,Digital Realty,operational,building,independently_confirmed_on_building,True,False,40.5375265,-74.5555236,,,,NJ,Somerset,OpenStreetMap
dc_b095480b552f,Digital Realty New Jersey EWR21,Digital Realty,operational,building,on_osm_building_single_source,False,True,40.8305858,-74.1245144,,,,NJ,Passaic,OpenStreetMap
dc_fd571f509631,,Centurylink,operational,building,on_osm_building_single_source,False,True,34.1998691,-118.3437888,,,,CA,Los Angeles,OpenStreetMap
dc_085fa1c6cd48,Amazon IAD78,Amazon Web Services,operational,building,independently_confirmed_on_building,True,False,39.0263681,-77.4495202,,,,VA,Loudoun,OpenStreetMap
dc_f76653816c0f,Amazon IAD79,Amazon Web Services,operational,building,independently_confirmed_on_building,True,False,39.0263574,-77.4508704,,,,VA,Loudoun,OpenStreetMap
dc_f5f99e41c7eb,,,operational,building,on_osm_building_single_source,False,True,39.56711,-119.5485335,,,,NV,Washoe,OpenStreetMap
dc_e47b672ce4ff,Kaiser Data Center,,operational,building,independently_confirmed_on_building,True,False,38.254065,-122.2730918,,,,CA,Napa,OpenStreetMap
dc_89f803745a9e,Lumen Dallas - 3180 Irving Blvd.,Lumen Technologies,operational,building,independently_confirmed_on_building,True,False,32.8069549,-96.8685888,,,,TX,Dallas,OpenStreetMap
dc_663e3aabdd3a,Prime DFW01-01,Prime,operational,building,independently_confirmed_on_building,True,False,32.8379581,-96.8784007,,,,TX,Dallas,OpenStreetMap
dc_2f2fa36dd479,Lumen Dallas 6,Lumen Technologies,operational,building,independently_confirmed_on_building,True,False,32.827998,-96.8843787,,,,TX,Dallas,OpenStreetMap
dc_c7388ffdcf0a,Digital Realty DFW36,Digital Realty,operational,building,independently_confirmed_on_building,True,False,32.8275499,-96.8737498,,,,TX,Dallas,OpenStreetMap
dc_2488b59ec2e1,DataBank Dallas Empire Central Data Center,DataBank,operational,building,independently_confirmed_on_building,True,False,32.8217503,-96.873553,,,,TX,Dallas,OpenStreetMap
dc_a3670fa43098,TierPoint Dallas Data Center,TierPoint,operational,building,independently_confirmed_on_building,True,False,32.8079818,-96.8573889,,,,TX,Dallas,OpenStreetMap
dc_daf9220540a9,Amazon IAD87,Amazon Web Services,operational,building,independently_confirmed_on_building,True,False,38.9918083,-77.441172,,,,VA,Loudoun,OpenStreetMap
dc_cfa3a5031c6d,Amazon IAD88,Amazon Web Services,operational,building,independently_confirmed_on_building,True,False,38.9909679,-77.4418679,,,,VA,Loudoun,OpenStreetMap
dc_021211d2ad4e,Verizon,Verizon,operational,building,independently_confirmed_on_building,True,False,39.589248,-104.877933,,,,CO,Arapahoe,OpenStreetMap
dc_3a8551ffe989,Stream Data Centers PHX-1,,operational,building,on_osm_building_single_source,False,True,33.4194907,-112.3599883,,,,AZ,Maricopa,OpenStreetMap
dc_a610d284990f,Live Oak Data Center,,operational,building,independently_confirmed_on_building,True,False,32.7837489,-96.7946364,,,,TX,Dallas,OpenStreetMap
dc_2309affb2b7b,Stack Infrastructure - POR01,Stack Infrastructure,operational,building,independently_confirmed_on_building,True,False,45.5493273,-122.9278183,,,,OR,Washington,OpenStreetMap
dc_c72d4cbdd423,Flexential Portland - Hillsboro 2,Flexential,operational,building,independently_confirmed_on_building,True,False,45.558302,-122.9171647,,,,OR,Washington,OpenStreetMap
dc_34120cb9bfb9,NYSE Data Center,nyse,operational,building,on_osm_building_single_source,False,True,41.0783165,-74.152912,,,,NJ,Bergen,OpenStreetMap
dc_765868de3ac6,AT&T,,operational,building,independently_confirmed_on_building,True,False,34.5799784,-118.1140073,,,,CA,Los Angeles,OpenStreetMap
dc_374ef12de243,,,operational,building,independently_confirmed_on_building,True,False,38.8026713,-104.5219809,,,,CO,El Paso,OpenStreetMap
dc_f17c4c877a75,Siemens EDA - HDC / Data Center,Siemens Digital Industries Software,operational,building,independently_confirmed_on_building,True,False,45.3187166,-122.7658797,,,,OR,Clackamas,OpenStreetMap
dc_4dcce2e3f5c2,Aligned  DFW-01,Aligned,operational,building,independently_confirmed_on_building,True,False,33.0093142,-96.6765617,,,,TX,Collin,OpenStreetMap
dc_dd893891f25e,Tierpoint Dallas-Allen,,operational,building,on_osm_building_single_source,False,True,33.1379102,-96.657329,,,,TX,Collin,OpenStreetMap
dc_d6dfe2b4b690,,DXC Technology,operational,building,independently_confirmed_on_building,True,False,30.0187,-95.8637474,,,,TX,Harris,OpenStreetMap
dc_65de9231db68,Amazon IAD73,Amazon Web Services,operational,building,independently_confirmed_on_building,True,False,38.7779795,-77.5590992,,,,VA,Prince William,OpenStreetMap
dc_3d7a9b4bc895,Amazon IAD74,Amazon Web Services,operational,building,independently_confirmed_on_building,True,False,38.7774374,-77.5578909,,,,VA,Prince William,OpenStreetMap
dc_98252a80dd0a,H5 Data Center,,operational,building,independently_confirmed_on_building,True,False,41.5063555,-81.683589,,,,OH,Cuyahoga,OpenStreetMap
dc_daf3c5ec6554,TPx Colocation Datacenter,TPx Communications,operational,building,on_osm_building_single_source,False,True,33.7075065,-117.8441042,,,,CA,Orange,OpenStreetMap
dc_a8e6550e1c77,Cologix Jacksonville JAX1,,operational,building,independently_confirmed_on_building,True,False,30.3314298,-81.6624257,,,,FL,Duval,OpenStreetMap
dc_8eb7845dad34,Microsoft,Microsoft,operational,building,independently_confirmed_on_building,True,False,47.2394872,-119.88741,,,,WA,Grant,OpenStreetMap
dc_913e6e43e473,,,operational,building,independently_confirmed_on_building,True,False,47.2385929,-119.864537,,,,WA,Grant,OpenStreetMap
dc_9f5bae7df94d,,,operational,building,on_osm_building_single_source,False,True,47.2475452,-119.8255073,,,,WA,Grant,OpenStreetMap
dc_971c8fad8ba8,Facebook Fort Worth Datacenter,Meta,operational,building,on_osm_building_single_source,False,True,32.9837829,-97.259335,,,,TX,Tarrant,OpenStreetMap
dc_b1a8f1928f7c,Data Center Lenexa,,operational,building,on_osm_building_single_source,False,True,38.9251636,-94.7703163,,,,KS,Johnson,OpenStreetMap
dc_86ba61e0a58f,CITIGROUP TECHNOLOGY INC,,operational,building,on_osm_building_single_source,False,True,33.0063815,-97.2452902,,,,TX,Denton,OpenStreetMap
dc_9499ddcbe5f4,QTS Data Center,Quality Technology Services,operational,building,on_osm_building_single_source,False,True,32.9889133,-97.2592738,,,,TX,Tarrant,OpenStreetMap
dc_d4b6d917cc3b,Lowe's Data Center,Lowe's,operational,building,independently_confirmed_on_building,True,False,29.4730082,-98.6895043,,,,TX,Bexar,OpenStreetMap
dc_ce1390890e70,,CHRISTUS Health,operational,building,independently_confirmed_on_building,True,False,29.4703276,-98.6861914,,,,TX,Bexar,OpenStreetMap
dc_d20b0b46a331,,Frost Bank,operational,building,independently_confirmed_on_building,True,False,29.4702125,-98.6876674,,,,TX,Bexar,OpenStreetMap
dc_e5a14b588180,CyrusOne San Antonio I,CyrusOne,operational,building,independently_confirmed_on_building,True,False,29.4666098,-98.6880869,,,,TX,Bexar,OpenStreetMap
dc_1290cd43e2a4,Valero Wiserman,Valero,operational,building,independently_confirmed_on_building,True,False,29.4742368,-98.6800789,,,,TX,Bexar,OpenStreetMap
dc_96e798de1923,Stream San Antonio II,,operational,building,independently_confirmed_on_building,True,False,29.472003,-98.6717199,,,,TX,Bexar,OpenStreetMap
dc_73c1808d41a7,CyrusOne San Antonio II,CyrusOne,operational,building,independently_confirmed_on_building,True,False,29.4708878,-98.6730474,,,,TX,Bexar,OpenStreetMap
dc_a3ef9d3df723,CyrusOne San Antonio III,CyrusOne,operational,building,independently_confirmed_on_building,True,False,29.4700573,-98.6721062,,,,TX,Bexar,OpenStreetMap
dc_545444cd2c47,Spectrum Charlotte National Data Center,,operational,building,on_osm_building_single_source,False,True,35.1428083,-80.9162228,,,,NC,Mecklenburg,OpenStreetMap
dc_5a2443390108,Apple,Apple Inc.,operational,building,on_osm_building_single_source,False,True,44.2889355,-120.870177,,,,OR,Crook,OpenStreetMap
dc_fca78ca8bfb8,Google Data Center,Google,operational,campus_centroid,no_building_found_manual,False,True,33.3541387,-111.6764271,33.350196,-111.676508,437.3,AZ,Maricopa,OpenStreetMap
dc_85d3abd0eef7,Cyxtera Tampa TP1,Cyxtera,operational,building,on_osm_building_single_source,False,True,27.9455353,-82.351102,,,,FL,Hillsborough,OpenStreetMap
dc_bfc0dc91e53d,DC Blox Chattanooga,,operational,building,independently_confirmed_on_building,True,False,35.0315499,-85.2972523,,,,TN,Hamilton,OpenStreetMap
dc_71df8167e3fe,QTS Irving - Dallas Data Center Campus,Quality Technology Services,operational,building,independently_confirmed_on_building,True,False,32.8972479,-96.9826475,,,,TX,Dallas,OpenStreetMap
dc_562f41628d8f,Centersquare Lisle ORD4 Data Center,Centersquare,operational,building,independently_confirmed_on_building,True,False,41.8023406,-88.0948856,,,,IL,DuPage,OpenStreetMap
dc_aabc1a713f0b,GoDaddy - Gilbert,,operational,building,independently_confirmed_on_building,True,False,33.3619309,-111.8392899,,,,AZ,Maricopa,OpenStreetMap
dc_d097e7925fc8,AT&T Center,American Telephone & Telegraph,operational,building,independently_confirmed_on_building,True,False,32.7476543,-117.1589538,,,,CA,San Diego,OpenStreetMap
dc_0882af2abe6a,,,operational,building,independently_confirmed_on_building,True,False,36.1405001,-86.7641364,,,,TN,Davidson,OpenStreetMap
dc_56d92a649558,CenturyLink,CenturyLink,operational,building,independently_confirmed_on_building,True,False,33.7651394,-84.3837393,,,,GA,Fulton,OpenStreetMap
dc_02fde467d5ca,,,operational,building,on_osm_building_single_source,False,True,41.124033,-104.8980886,,,,WY,Laramie,OpenStreetMap
dc_d637d15aba22,,,operational,building,on_osm_building_single_source,False,True,41.1240368,-104.8992688,,,,WY,Laramie,OpenStreetMap
dc_42f487aa6732,,,operational,building,on_osm_building_single_source,False,True,41.1252836,-104.8992715,,,,WY,Laramie,OpenStreetMap
dc_7668d76b7f88,,,operational,building,on_osm_building_single_source,False,True,41.1252868,-104.8980833,,,,WY,Laramie,OpenStreetMap
dc_a4961042eb4e,Expedient Pittsburgh South,Expedient,operational,building,independently_confirmed_on_building,True,False,40.427371,-80.0425212,,,,PA,Allegheny,OpenStreetMap
dc_7f37dc601968,Centersquare: Phoenix - (PHX1 - Mesa),Centersquare,operational,building,independently_confirmed_on_building,True,False,33.4212542,-111.8590191,,,,AZ,Maricopa,OpenStreetMap
dc_c5410ccfaab6,,DXC Technology,operational,building,on_osm_building_single_source,False,True,29.9951976,-95.5633335,,,,TX,Harris,OpenStreetMap
dc_a732fbbc8530,,DXC Technology,operational,building,independently_confirmed_on_building,True,False,29.9973349,-95.5640398,,,,TX,Harris,OpenStreetMap
dc_c192d1a8a58f,Liquid Web,,operational,building,independently_confirmed_on_building,True,False,42.6879527,-84.6430423,,,,MI,Eaton,OpenStreetMap
dc_9886b7475b36,Amazon IAD63,Amazon Web Services,operational,building,independently_confirmed_on_building,True,False,38.9168847,-77.4932514,,,,VA,Loudoun,OpenStreetMap
dc_cee882b53bd3,"Liquid Web, Inc",,operational,building,on_osm_building_single_source,False,True,42.7053904,-84.6660891,,,,MI,Eaton,OpenStreetMap
dc_83eddcd908a9,Amazon IAD62,Amazon Web Services,operational,building,independently_confirmed_on_building,True,False,38.9493217,-77.5198747,,,,VA,Loudoun,OpenStreetMap
dc_e694b11642aa,,,operational,building,independently_confirmed_on_building,True,False,34.0707004,-84.6759032,,,,GA,Cobb,OpenStreetMap
dc_c27350073d52,ADP South Dakota,,operational,building,on_osm_building_single_source,False,True,43.5999139,-96.7947573,,,,SD,Minnehaha,OpenStreetMap
dc_d0069abf7d58,TJX Corporate Techno,,operational,building,independently_confirmed_on_building,True,False,40.1038888,-82.8106146,,,,OH,Franklin,OpenStreetMap
dc_47cb11fb436c,Compugen New Albany,,operational,building,independently_confirmed_on_building,True,False,40.1045986,-82.8049123,,,,OH,Franklin,OpenStreetMap
dc_f011d85ef1f9,Compugen New Albany,,operational,building,independently_confirmed_on_building,True,False,40.1037135,-82.8089026,,,,OH,Franklin,OpenStreetMap
dc_14a17660785d,Flexential Dallas - Richardson,Flexential,operational,building,on_osm_building_single_source,False,True,32.9948122,-96.7524974,,,,TX,Collin,OpenStreetMap
dc_86ea4c3bc7df,Experian McKinney Data Center,,operational,building,independently_confirmed_on_building,True,False,33.1717958,-96.725505,,,,TX,Collin,OpenStreetMap
dc_9004be7e046a,Digital Fortress: Richmond,Digital Fortress,operational,building,independently_confirmed_on_building,True,False,37.3600608,-77.327038,,,,VA,Chesterfield,OpenStreetMap
dc_e0c9ea4740c6,DataCenter.BZ - Worthington-Columbus,,operational,building,independently_confirmed_on_building,True,False,40.1157427,-83.0025794,,,,OH,Franklin,OpenStreetMap
dc_9fc2a0ec8776,Stack Infrastructure,Stack Infrastructure,operational,building,on_osm_building_single_source,False,True,37.4025598,-121.893391,,,,CA,Santa Clara,OpenStreetMap
dc_99361789c568,Stack Infrastructure,Stack Infrastructure,operational,building,on_osm_building_single_source,False,True,37.4022094,-121.8923868,,,,CA,Santa Clara,OpenStreetMap
dc_cf02216bd8e1,Carfax,,operational,building,independently_confirmed_on_building,True,False,38.9235166,-92.2886061,,,,MO,Boone,OpenStreetMap
dc_2a18edd9d2aa,Facebook Altoona Data Center 3,Meta,operational,building,on_osm_building_single_source,False,True,41.6670521,-93.5065646,,,,IA,Polk,OpenStreetMap
dc_39191f37a067,Amazon IAD71,Amazon Web Services,operational,building,independently_confirmed_on_building,True,False,39.0279064,-77.4574998,,,,VA,Loudoun,OpenStreetMap
dc_1bea2a6b9476,Amazon IAD50,Amazon Web Services,operational,building,independently_confirmed_on_building,True,False,39.0295615,-77.4596546,,,,VA,Loudoun,OpenStreetMap
dc_0f68bcad00f6,Amazon IAD60,Amazon Web Services,operational,building,independently_confirmed_on_building,True,False,39.0287737,-77.4582461,,,,VA,Loudoun,OpenStreetMap
dc_4c5da4f27c7f,Amazon Web Services,Amazon Web Services,operational,building,independently_confirmed_on_building,True,False,32.8504831,-97.0702974,,,,TX,Tarrant,OpenStreetMap
dc_0d1d0eeeddb7,Amazon Web Services  CMH50,Amazon Web Services,operational,building,independently_confirmed_on_building,True,False,40.0946297,-82.7513394,,,,OH,Licking,OpenStreetMap
dc_b3c53f7424cf,,,operational,building,independently_confirmed_on_building,True,False,39.185856,-85.8870717,,,,IN,Bartholomew,OpenStreetMap
dc_b016da3f5d99,Thin-nology,,operational,building,independently_confirmed_on_building,True,False,30.4211412,-97.591603,,,,TX,Travis,OpenStreetMap
dc_b28695cd9ccc,CyrusOne Norwalk,CyrusOne,operational,building,on_osm_building_single_source,False,True,41.1130924,-73.3886495,,,,CT,Western Connecticut,OpenStreetMap
dc_07793c6ceca0,Data Foundry - Texas 2,,operational,building,on_osm_building_single_source,False,True,30.1995736,-97.71307,,,,TX,Travis,OpenStreetMap
dc_f962646a287f,Meta Los Lunas Data Center,Meta,operational,campus_centroid,no_building_found_manual,False,True,34.8298309,-106.77852,34.830874,-106.778925,121.5,NM,Valencia,OpenStreetMap
dc_e521fcdace02,Google Datacenter - Douglas County,Google,operational,campus_centroid,independently_confirmed_on_building,True,False,33.7504467,-84.5856816,,,,GA,Douglas,OpenStreetMap
dc_52dd223d9f13,Google,Google,operational,campus_centroid,independently_confirmed_on_building,True,False,41.2219559,-95.8642852,,,,IA,Pottawattamie,OpenStreetMap
