{
  "version": 0.6,
  "generator": "Overpass API 0.7.62.11 87bfad18",
  "osm3s": {
    "timestamp_osm_base": "2026-06-21T15:14:15Z",
    "timestamp_areas_base": "2026-06-21T06:09:00Z",
    "copyright": "The data included in this document is from www.openstreetmap.org. The data is made available under ODbL."
  },
  "elements": [

{
  "type": "node",
  "id": 751881301,
  "lat": 38.9028879,
  "lon": -77.0291491,
  "tags": {
    "addr:housenumber": "1275",
    "addr:street": "K Street Northwest",
    "clli": "WASHDC12",
    "name": "CoreSite DC1",
    "operator": "CoreSite",
    "operator:wikidata": "Q5170140",
    "source": "dcgis",
    "telecom": "data_center",
    "website": "https://www.coresite.com/data-center/dc1-washington-d-c"
  }
},
{
  "type": "node",
  "id": 1825907839,
  "lat": 35.1032925,
  "lon": -106.5893487,
  "tags": {
    "addr:city": "Albuquerque",
    "addr:housename": "Tech Commons Office Complex",
    "addr:housenumber": "5021",
    "addr:postcode": "87110",
    "addr:state": "NM",
    "addr:street": "Indian School Road Northeast",
    "addr:suite": "600",
    "name": "Southwest Cyberport",
    "phone": "+1-505-232-7975",
    "short_name": "SWCP",
    "telecom": "data_center",
    "website": "https://www.swcp.com/",
    "wheelchair": "yes"
  }
},
{
  "type": "node",
  "id": 2607827436,
  "lat": 32.7750252,
  "lon": -117.0708880,
  "tags": {
    "name": "SDSU Computer Room",
    "telecom": "data_center"
  }
},
{
  "type": "node",
  "id": 3406467087,
  "lat": 25.7915453,
  "lon": -80.3177484,
  "tags": {
    "check_date:currency:XBT": "2022-12-23",
    "currency:XBT": "yes",
    "name": "NocRoom Miami IT Services",
    "telecom": "data_center",
    "website": "https://nocroom.com"
  }
},
{
  "type": "node",
  "id": 3406476814,
  "lat": 25.6465617,
  "lon": -80.4234346,
  "tags": {
    "check_date:currency:XBT": "2022-12-23",
    "currency:XBT": "yes",
    "name": "NocRoom Miami IT Services",
    "telecom": "data_center",
    "website": "https://nocroom.com"
  }
},
{
  "type": "node",
  "id": 3468203102,
  "lat": 30.4074460,
  "lon": -91.1725454,
  "tags": {
    "name": "Center for Computation & Technology (CCT)",
    "telecom": "data_center"
  }
},
{
  "type": "node",
  "id": 3732415309,
  "lat": 45.5214248,
  "lon": -122.6805620,
  "tags": {
    "addr:city": "Portland",
    "addr:housenumber": "921",
    "addr:postcode": "97205",
    "addr:state": "OR",
    "addr:street": "Southwest Washington Street",
    "addr:unit": "100",
    "name": "The Pittock Internet Exchange",
    "operator": "Alco Properties",
    "telecom": "data_center",
    "website": "http://www.pittock.com/"
  }
},
{
  "type": "node",
  "id": 4879481820,
  "lat": 33.7715677,
  "lon": -84.3668585,
  "tags": {
    "building": "yes",
    "name": "Google Fiber",
    "operator": "Google",
    "operator:wikidata": "Q95",
    "operator:wikipedia": "en:Google",
    "telecom": "data_center"
  }
},
{
  "type": "node",
  "id": 5146323411,
  "lat": 37.8698521,
  "lon": -122.2598231,
  "tags": {
    "description": "Computer lab providing services to UC Berkeley community",
    "name": "Open Computing Facility",
    "source": "local_knowledge",
    "telecom": "data_center",
    "website": "https://www.ocf.berkeley.edu/",
    "wheelchair": "yes",
    "wikidata": "Q7095985",
    "wikipedia": "en:Open Computing Facility"
  }
},
{
  "type": "node",
  "id": 5225685660,
  "lat": 37.4156880,
  "lon": -79.1427063,
  "tags": {
    "name": "Lumos Networks",
    "telecom": "data_center"
  }
},
{
  "type": "node",
  "id": 6401035673,
  "lat": 35.4672049,
  "lon": -97.6497453,
  "tags": {
    "addr:city": "Oklahoma CIty",
    "addr:housenumber": "7725",
    "addr:postcode": "73127",
    "addr:state": "OK",
    "addr:street": "West Reno Avenue",
    "addr:unit": "385",
    "name": "Rack59 Data Center",
    "telecom": "data_center"
  }
},
{
  "type": "node",
  "id": 6625492701,
  "lat": 35.0925015,
  "lon": -106.6536712,
  "tags": {
    "addr:city": "Albuquerque",
    "addr:housenumber": "725",
    "addr:postcode": "87102",
    "addr:state": "NM",
    "addr:street": "6th Street Northwest",
    "addr:unit": "C",
    "name": "Oso Grande",
    "operator": "Oso Grande",
    "ref": "OSO",
    "telecom": "data_center"
  }
},
{
  "type": "node",
  "id": 6793837329,
  "lat": 39.6309851,
  "lon": -78.2253196,
  "tags": {
    "addr:city": "Bath (Berkeley Springs)",
    "addr:housenumber": "303",
    "addr:postcode": "25411",
    "addr:state": "WV",
    "addr:street": "North Washington Street",
    "addr:unit": "1",
    "name": "Morgan Wireless",
    "phone": "+1-304-592-8330",
    "telecom": "data_center",
    "website": "https://www.morganwireless.net"
  }
},
{
  "type": "node",
  "id": 6856057098,
  "lat": 32.7825463,
  "lon": -96.7828145,
  "tags": {
    "addr:city": "Dallas",
    "addr:housenumber": "2805",
    "addr:postcode": "75226",
    "addr:state": "TX",
    "addr:street": "Canton Street",
    "description": "Web hosting, dedicated servers, VPS and colocation.",
    "name": "VIRTBIZ",
    "phone": "+1-972-485-4125",
    "telecom": "data_center",
    "website": "https://www.virtbiz.com/"
  }
},
{
  "type": "node",
  "id": 7171975407,
  "lat": 43.6578388,
  "lon": -70.2613785,
  "tags": {
    "addr:city": "Portland",
    "addr:housenumber": "340",
    "addr:postcode": "04101",
    "addr:state": "ME",
    "addr:street": "Cumberland Avenue",
    "addr:unit": "7",
    "name": "FirstLight Data Center",
    "operator": "FirstLight",
    "telecom": "data_center",
    "website": "https://www.firstlight.net/products/data-center/portland-me-data-center/"
  }
},
{
  "type": "node",
  "id": 7264976228,
  "lat": 40.4217900,
  "lon": -86.9141546,
  "tags": {
    "name": "Learning GIS!",
    "telecom": "data_center"
  }
},
{
  "type": "node",
  "id": 7264976991,
  "lat": 40.4218543,
  "lon": -86.9165454,
  "tags": {
    "description": "Youthmapper generated Purdue GIS classroom or data labs.",
    "name": "Agricultural and Biological Engineering",
    "telecom": "data_center"
  }
},
{
  "type": "node",
  "id": 7324132050,
  "lat": 35.8813970,
  "lon": -78.8515520,
  "tags": {
    "addr:city": "Durham",
    "addr:housenumber": "5400",
    "addr:postcode": "27703",
    "addr:state": "NC",
    "addr:street": "South Miami Boulevard",
    "addr:unit": "134",
    "name": "Windstream Communications",
    "telecom": "data_center",
    "wikidata": "Q8024771",
    "wikipedia": "en:Windstream Holdings"
  }
},
{
  "type": "node",
  "id": 7324132051,
  "lat": 35.8813640,
  "lon": -78.8515726,
  "tags": {
    "addr:city": "Durham",
    "addr:housenumber": "5400",
    "addr:postcode": "27703",
    "addr:state": "NC",
    "addr:street": "South Miami Boulevard",
    "addr:unit": "135",
    "name": "Level 3 Communications",
    "telecom": "data_center",
    "wikidata": "Q322320",
    "wikipedia": "en:Level 3 Communications"
  }
},
{
  "type": "node",
  "id": 7557854384,
  "lat": 33.3804149,
  "lon": -111.7526684,
  "tags": {
    "addr:city": "Mesa",
    "addr:housenumber": "1955",
    "addr:postcode": "85206",
    "addr:state": "AZ",
    "addr:street": "South Val Vista Drive",
    "name": "OptimumHQ",
    "source": "esri/USA_NAD_Addresses",
    "telecom": "data_center"
  }
},
{
  "type": "node",
  "id": 7557868585,
  "lat": 33.3806010,
  "lon": -111.7528888,
  "tags": {
    "addr:city": "Mesa",
    "addr:housenumber": "1955",
    "addr:postcode": "85206",
    "addr:state": "AZ",
    "addr:street": "South Val Vista Drive",
    "name": "The Chatfield Group",
    "source": "esri/USA_NAD_Addresses",
    "telecom": "data_center"
  }
},
{
  "type": "node",
  "id": 7578821329,
  "lat": 33.3199157,
  "lon": -111.8096860,
  "tags": {
    "addr:city": "Chandler",
    "addr:housenumber": "1909",
    "addr:postcode": "85225",
    "addr:state": "AZ",
    "addr:street": "East Ray Road",
    "name": "All About Serving Process Server",
    "source": "esri/USA_NAD_Addresses",
    "telecom": "data_center"
  }
},
{
  "type": "node",
  "id": 7737996606,
  "lat": 33.3029650,
  "lon": -111.8405386,
  "tags": {
    "name": "Emailage",
    "telecom": "data_center"
  }
},
{
  "type": "node",
  "id": 7821940847,
  "lat": 33.3799862,
  "lon": -111.7284050,
  "tags": {
    "addr:city": "Mesa",
    "addr:housenumber": "4850",
    "addr:postcode": "85206",
    "addr:state": "AZ",
    "addr:street": "East Baseline Road",
    "name": "Alliance Technology",
    "source": "esri/USA_NAD_Addresses",
    "telecom": "data_center"
  }
},
{
  "type": "node",
  "id": 7985753364,
  "lat": 38.9137236,
  "lon": -77.2258825,
  "tags": {
    "addr:housenumber": "8100",
    "addr:street": "Boone Boulevard",
    "name": "8100 Boone Boulevard",
    "operator": "Digital Realty",
    "operator:wikidata": "Q5275969",
    "operator:wikipedia": "en:Digital Realty",
    "owner": "Digital Realty",
    "telecom": "data_center"
  }
},
{
  "type": "node",
  "id": 8017899486,
  "lat": 29.6728187,
  "lon": -82.2997617,
  "tags": {
    "access": "private",
    "check_date": "2023-08-06",
    "description": "The most powerful university supercomputer in the Southern United States",
    "level": "0",
    "manufacturer": "NVIDIA",
    "manufacturer:type": "DGX A10 SuperPOD™",
    "manufacturer:wikidata": "Q182477",
    "name": "HiPerGator",
    "office": "research",
    "operator": "University of Florida",
    "ref": "Version 3.0",
    "research": "computer_science",
    "telecom": "data_center",
    "website": "https://www.rc.ufl.edu/services/hipergator/"
  }
},
{
  "type": "node",
  "id": 8109664813,
  "lat": 33.7555186,
  "lon": -84.3914814,
  "tags": {
    "addr:city": "Atlanta",
    "addr:housenumber": "56",
    "addr:postcode": "30303",
    "addr:state": "GA",
    "addr:street": "Marietta Street",
    "name": "Atlanta ATL13",
    "operator": "Digital Realty",
    "operator:wikidata": "Q5275969",
    "ref": "ATL13",
    "telecom": "data_center",
    "website": "https://www.digitalrealty.com/data-centers/americas/atlanta/atl13"
  }
},
{
  "type": "node",
  "id": 8165754026,
  "lat": 43.0439408,
  "lon": -87.9539794,
  "tags": {
    "addr:city": "Milwaukee",
    "addr:housenumber": "3135",
    "addr:postcode": "53208-3251",
    "addr:state": "WI",
    "addr:street": "West Highland Boulevard",
    "contact:email": "sales@dataholdings.com",
    "contact:facebook": "https://www.facebook.com/Data-Holdings-Data-Center-570409053327886/",
    "contact:phone": "+1 414 837 5502",
    "contact:twitter": "https://twitter.com/dataholdingsmke",
    "contact:website": "https://www.dataholdings.com/",
    "name": "Data Holdings Data Center",
    "office": "company",
    "owner": "Potawatomi Business Development Corporation",
    "short_name": "Data Holdings",
    "telecom": "data_center"
  }
},
{
  "type": "node",
  "id": 8238715059,
  "lat": 37.4027449,
  "lon": -121.8910510,
  "tags": {
    "addr:city": "San Jose",
    "addr:housenumber": "2150",
    "addr:postcode": "95131",
    "addr:state": "CA",
    "addr:street": "Trade Zone Boulevard",
    "addr:unit": "107",
    "fixme": "Somewhere on this floor",
    "level": "0",
    "name": "STACK Infrastructure",
    "operator": "Stack Infrastructure, Incorporated",
    "telecom": "data_center"
  }
},
{
  "type": "node",
  "id": 8238715061,
  "lat": 37.4026341,
  "lon": -121.8910570,
  "tags": {
    "addr:city": "San Jose",
    "addr:housenumber": "2150",
    "addr:postcode": "95131",
    "addr:state": "CA",
    "addr:street": "Trade Zone Boulevard",
    "addr:unit": "201",
    "fixme": "Somewhere on this floor",
    "level": "1",
    "name": "STACK Infrastructure",
    "operator": "Stack Infrastructure, Incorporated",
    "telecom": "data_center"
  }
},
{
  "type": "node",
  "id": 8477460442,
  "lat": 35.2553162,
  "lon": -120.6415128,
  "tags": {
    "name": "Digital West Data Center",
    "telecom": "data_center"
  }
},
{
  "type": "node",
  "id": 8641856300,
  "lat": 42.6279424,
  "lon": -82.9883939,
  "tags": {
    "name": "Chick-fil-A Hiring Center",
    "operator": "Dennis Sampier",
    "telecom": "data_center"
  }
},
{
  "type": "node",
  "id": 8767284091,
  "lat": 41.7070776,
  "lon": -72.5898636,
  "tags": {
    "addr:city": "Glastonbury",
    "addr:housenumber": "65",
    "addr:postcode": "06033",
    "addr:state": "CT",
    "addr:street": "Kreiger Lane",
    "name": "Ergonomic Group",
    "office": "telecommunication",
    "phone": "+1 860 563 4353",
    "telecom": "data_center",
    "website": "https://www.ergogroup.com"
  }
},
{
  "type": "node",
  "id": 8897151054,
  "lat": 37.3341181,
  "lon": -121.8916460,
  "tags": {
    "addr:city": "San Jose",
    "addr:housenumber": "55",
    "addr:postcode": "95113",
    "addr:state": "CA",
    "addr:street": "South Market Street",
    "addr:unit": "104",
    "fixme": "Somewhere in this building",
    "name": "San Jose Colocation Center",
    "official_name": "CoreSite Real Estate 55 S Market Street, L.L.C.",
    "operator": "CoreSite",
    "operator:wikidata": "Q5170140",
    "ref": "SV1",
    "telecom": "data_center",
    "website": "https://www.coresite.com/data-center/sv1-san-jose-ca"
  }
},
{
  "type": "node",
  "id": 9092482804,
  "lat": 39.0254851,
  "lon": -77.4146998,
  "tags": {
    "name": "Amazon Web Services IAD69",
    "operator": "Amazon Web Services",
    "operator:short": "AWS",
    "operator:wikidata": "Q456157",
    "ref": "IAD69",
    "telecom": "data_center"
  }
},
{
  "type": "node",
  "id": 9190480200,
  "lat": 30.1781365,
  "lon": -95.4860464,
  "tags": {
    "addr:city": "The Woodlands",
    "addr:housenumber": "4001",
    "addr:postcode": "77381",
    "addr:state": "TX",
    "addr:street": "Technology Forest Boulevard",
    "name": "Stream Data Centers Houston",
    "telecom": "data_center",
    "website": "https://www.streamdatacenters.com/datacenters/houston-the-woodlands/"
  }
},
{
  "type": "node",
  "id": 9669340912,
  "lat": 39.2877017,
  "lon": -76.6064893,
  "tags": {
    "addr:city": "Baltimore",
    "addr:housenumber": "111",
    "addr:postcode": "21202-4036",
    "addr:state": "MD",
    "addr:street": "Market Place",
    "addr:unit": "Suite 123",
    "name": "Crown Castle Baltimore",
    "operator": "Crown Castle Fiber",
    "phone": "+1 877 486 9377",
    "ref": "Baltimore",
    "telecom": "data_center",
    "website": "https://www.crowncastle.com/communities/baltimore-md.aspx"
  }
},
{
  "type": "node",
  "id": 9669405859,
  "lat": 39.2917583,
  "lon": -76.6203737,
  "tags": {
    "addr:city": "Baltimore",
    "addr:housenumber": "300",
    "addr:postcode": "21201",
    "addr:state": "MD",
    "addr:street": "West Lexington Street",
    "name": "AiNET One Market Center",
    "operator": "AiNET",
    "phone": "+1 301 931 6574",
    "ref": "BW1",
    "telecom": "data_center",
    "website": "https://www.ai.net/"
  }
},
{
  "type": "node",
  "id": 9669639033,
  "lat": 38.9208538,
  "lon": -77.2115713,
  "tags": {
    "addr:city": "McLean",
    "addr:housenumber": "1755",
    "addr:postcode": "22102",
    "addr:state": "VA",
    "addr:street": "Old Meadow Road",
    "name": "Lumen McLean",
    "operator": "Lumen Technologies",
    "operator:wikidata": "Q5063092",
    "telecom": "data_center"
  }
},
{
  "type": "node",
  "id": 9721703993,
  "lat": 43.0093779,
  "lon": -87.9610618,
  "tags": {
    "name": "TierPoint Milwaukee",
    "telecom": "data_center"
  }
},
{
  "type": "node",
  "id": 9736262934,
  "lat": 42.9902011,
  "lon": -78.8123836,
  "tags": {
    "addr:city": "Amherst",
    "addr:housenumber": "4033",
    "addr:postcode": "14226",
    "addr:state": "NY",
    "addr:street": "Maple Road",
    "name": "Frontier Science",
    "phone": "+1-716-834-0900",
    "telecom": "data_center",
    "website": "https://www.frontierscience.org"
  }
},
{
  "type": "node",
  "id": 9808044830,
  "lat": 35.0886289,
  "lon": -106.6526456,
  "tags": {
    "addr:city": "Albuquerque",
    "addr:housenumber": "505",
    "addr:postcode": "87102",
    "addr:state": "NM",
    "addr:street": "Marquette Avenue Northwest",
    "name": "505 Marquette",
    "telecom": "data_center"
  }
},
{
  "type": "node",
  "id": 9808044840,
  "lat": 35.0844494,
  "lon": -106.6489853,
  "tags": {
    "addr:city": "Albuquerque",
    "addr:housenumber": "123",
    "addr:state": "NM",
    "addr:street": "Central Avenue Northwest",
    "name": "123 Central",
    "operator": "bigbyte.cc",
    "telecom": "data_center"
  }
},
{
  "type": "node",
  "id": 9861806598,
  "lat": 39.1011816,
  "lon": -94.5788209,
  "tags": {
    "telecom": "data_center"
  }
},
{
  "type": "node",
  "id": 9922928085,
  "lat": 39.1009071,
  "lon": -94.5811452,
  "tags": {
    "addr:city": "Kansas City",
    "addr:housenumber": "1102",
    "addr:postcode": "64106",
    "addr:state": "MO",
    "addr:street": "Grand Boulevard",
    "name": "Netrality Data Centers",
    "telecom": "data_center",
    "website": "https://netrality.com/locations/data-center-kansas-city/"
  }
},
{
  "type": "node",
  "id": 10014176940,
  "lat": 18.4174359,
  "lon": -66.1089895,
  "tags": {
    "addr:city": "Guaynabo",
    "addr:housenumber": "48",
    "addr:postcode": "00968",
    "addr:state": "PR",
    "addr:street": "Avenida El Caño",
    "name": "Microsoft",
    "operator": "Microsoft",
    "operator:wikidata": "Q2283",
    "phone": "+1 787-273-3600",
    "telecom": "data_center",
    "website": "www,microsoft.com/es-pr"
  }
},
{
  "type": "node",
  "id": 10537283366,
  "lat": 41.8728811,
  "lon": -87.6334400,
  "tags": {
    "addr:city": "Chicago",
    "addr:housenumber": "717",
    "addr:postcode": "60607",
    "addr:state": "IL",
    "addr:street": "South Wells Street",
    "name": "Netrality",
    "operator": "Netrality",
    "telecom": "data_center"
  }
},
{
  "type": "node",
  "id": 10567817971,
  "lat": 36.0030993,
  "lon": -78.9385323,
  "tags": {
    "description": "The Brandaleone Lab for Data and Visualization Services (https://library.duke.edu/data/about/lab) provides research computing for projects involving data analytics, data visualization, digital mapping and statistics. Computers in the lab are available for",
    "name": "Brandaleone Lab for Data and Visualization",
    "operator": "Duke Libraries",
    "telecom": "data_center"
  }
},
{
  "type": "node",
  "id": 10648552506,
  "lat": 35.9295133,
  "lon": -84.3105670,
  "tags": {
    "name": "Frontier (supercomputer)",
    "operator": "Oak Ridge National Laboratory",
    "telecom": "data_center"
  }
},
{
  "type": "node",
  "id": 10780794741,
  "lat": 37.7796531,
  "lon": -122.3940005,
  "tags": {
    "addr:housenumber": "630",
    "addr:state": "CA",
    "addr:street": "3rd Street",
    "operator": "Ntirety",
    "telecom": "data_center"
  }
},
{
  "type": "node",
  "id": 10796113031,
  "lat": 33.6273670,
  "lon": -111.9017033,
  "tags": {
    "name": "VaultLogix",
    "telecom": "data_center"
  }
},
{
  "type": "node",
  "id": 10796113033,
  "lat": 33.6272477,
  "lon": -111.9020476,
  "tags": {
    "name": "Profit Finder Pro Software",
    "telecom": "data_center"
  }
},
{
  "type": "node",
  "id": 10798644674,
  "lat": 33.6116624,
  "lon": -111.9139825,
  "tags": {
    "name": "DataPro USA Web Development",
    "telecom": "data_center"
  }
},
{
  "type": "node",
  "id": 10880725408,
  "lat": 37.9710809,
  "lon": -122.0437382,
  "tags": {
    "addr:city": "Concord",
    "addr:housenumber": "1855",
    "addr:postcode": "94520",
    "addr:state": "CA",
    "addr:street": "Gateway Boulevard",
    "addr:unit": "Suite 730",
    "description": "e360 is a platform that delivers solutions to environmental challenges, promoting sustainable practices and a greener future for businesses and individuals worldwide.",
    "name": "e360",
    "phone": "+1-877-368-4797",
    "telecom": "data_center",
    "website": "https://www.e360.com/"
  }
},
{
  "type": "node",
  "id": 10910879064,
  "lat": 41.8533507,
  "lon": -87.6183067,
  "tags": {
    "addr:city": "Chicago",
    "addr:housenumber": "350",
    "addr:postcode": "60616",
    "addr:state": "IL",
    "addr:street": "East Cermak Road",
    "name": "Digital Realty ORD10",
    "operator": "Digital Realty",
    "operator:wikidata": "Q5275969",
    "ref": "ORD10",
    "telecom": "data_center"
  }
},
{
  "type": "node",
  "id": 10910879065,
  "lat": 41.8533827,
  "lon": -87.6186071,
  "tags": {
    "addr:city": "Chicago",
    "addr:housenumber": "350",
    "addr:postcode": "60616",
    "addr:state": "IL",
    "addr:street": "East Cermak Road",
    "name": "Centersquare Chicago Data Center - ORD1",
    "operator": "Centersquare",
    "operator:wikidata": "Q127304226",
    "ref": "ORD1",
    "telecom": "data_center",
    "website": "https://centersquaredc.com/data-centers/chicago#chicagocermak-ord1"
  }
},
{
  "type": "node",
  "id": 10938672218,
  "lat": 33.6344843,
  "lon": -111.8843457,
  "tags": {
    "name": "K-Motion Interactive",
    "telecom": "data_center"
  }
},
{
  "type": "node",
  "id": 10945121336,
  "lat": 41.8805271,
  "lon": -87.6359383,
  "tags": {
    "name": "West Monroe",
    "telecom": "data_center"
  }
},
{
  "type": "node",
  "id": 11018926315,
  "lat": 33.6446663,
  "lon": -111.8960985,
  "tags": {
    "name": "Iron Mountain Data Centers AZS-1",
    "telecom": "data_center"
  }
},
{
  "type": "node",
  "id": 11098469355,
  "lat": 41.8759405,
  "lon": -87.6314655,
  "tags": {
    "addr:city": "Chicago",
    "addr:housenumber": "427",
    "addr:postcode": "60605",
    "addr:state": "IL",
    "addr:street": "South LaSalle Street",
    "clli": "CHCGILWU",
    "communication": "fiber",
    "name": "CoreSite Chicago Data Center (CH1)",
    "old_ref": "Western Union",
    "operator": "CoreSite",
    "operator:wikidata": "Q5170140",
    "ref": "CH1",
    "telecom": "data_center",
    "telecom:medium": "fibre",
    "website": "https://www.coresite.com/data-center/ch1-chicago-il"
  }
},
{
  "type": "node",
  "id": 11113161710,
  "lat": 33.6647455,
  "lon": -112.1117142,
  "tags": {
    "name": "Accelera Data Systems",
    "telecom": "data_center"
  }
},
{
  "type": "node",
  "id": 11167641842,
  "lat": 39.4273178,
  "lon": -76.8115503,
  "tags": {
    "addr:city": "Owings Mills",
    "addr:housenumber": "11155",
    "addr:postcode": "21117",
    "addr:state": "MD",
    "addr:street": "Red Run Boulevard",
    "addr:unit": "200",
    "name": "Expedient Owings Mills",
    "operator": "Expedient",
    "telecom": "data_center",
    "website": "https://www.expedient.com/data-centers/baltimore/"
  }
},
{
  "type": "node",
  "id": 11168593074,
  "lat": 39.2917592,
  "lon": -76.6204024,
  "tags": {
    "name": "Lumen Baltimore",
    "operator": "Lumen Technologies",
    "operator:wikidata": "Q5063092",
    "telecom": "data_center"
  }
},
{
  "type": "node",
  "id": 11168593094,
  "lat": 39.2746554,
  "lon": -76.5916709,
  "tags": {
    "name": "Expedient Tidepoint",
    "operator": "Expedient",
    "telecom": "data_center",
    "website": "https://www.expedient.com/data-centers/baltimore/"
  }
},
{
  "type": "node",
  "id": 11400893880,
  "lat": 39.5938733,
  "lon": -104.8431597,
  "tags": {
    "addr:city": "Centennial",
    "addr:housenumber": "12500",
    "addr:postcode": "80112",
    "addr:state": "CO",
    "addr:street": "East Arapahoe Road",
    "addr:unit": "C",
    "name": "Flexential - Denver - Centennial Data Center",
    "operator": "Flexential",
    "operator:wikidata": "Q115417504",
    "telecom": "data_center",
    "website": "https://www.flexential.com/data-centers/co/denver/centennial-data-center"
  }
},
{
  "type": "node",
  "id": 11666916913,
  "lat": 33.3955855,
  "lon": -111.9700762,
  "tags": {
    "name": "EdgeConneX Data Center",
    "operator": "EdgeConneX",
    "operator:wikidata": "Q115477226",
    "telecom": "data_center"
  }
},
{
  "type": "node",
  "id": 11815482844,
  "lat": 41.8072817,
  "lon": -83.6276287,
  "tags": {
    "telecom": "data_center"
  }
},
{
  "type": "node",
  "id": 11924506303,
  "lat": 33.9102899,
  "lon": -117.5030207,
  "tags": {
    "name": "IT",
    "telecom": "data_center"
  }
},
{
  "type": "node",
  "id": 11938614120,
  "lat": 33.4051307,
  "lon": -111.9773353,
  "tags": {
    "name": "Alembic Computer Services, Inc.",
    "telecom": "data_center"
  }
},
{
  "type": "node",
  "id": 11938631189,
  "lat": 33.4131856,
  "lon": -111.9711539,
  "tags": {
    "name": "J-Curve Technologies",
    "telecom": "data_center"
  }
},
{
  "type": "node",
  "id": 12112201416,
  "lat": 39.3159313,
  "lon": -84.4494638,
  "tags": {
    "addr:city": "West Chester",
    "addr:housenumber": "5307",
    "addr:postcode": "45011",
    "addr:state": "OH",
    "addr:street": "Mulhauser Road",
    "name": "Flexential Cincinnati",
    "operator": "Flexential",
    "operator:wikidata": "Q115417504",
    "telecom": "data_center"
  }
},
{
  "type": "node",
  "id": 12112236372,
  "lat": 39.7459702,
  "lon": -104.9941589,
  "tags": {
    "addr:city": "Denver",
    "addr:full": "1500 Champa Street Suite 100, Denver, CO 80202 United States",
    "addr:housenumber": "1500",
    "addr:postcode": "80202",
    "addr:state": "CO",
    "addr:street": "Champa Street",
    "addr:unit": "100",
    "name": "Flexential Denver - Downtown",
    "operator": "Flexential",
    "operator:wikidata": "Q115417504",
    "telecom": "data_center",
    "website": "https://www.flexential.com/data-centers/co/denver/downtown-data-center"
  }
},
{
  "type": "node",
  "id": 12112238944,
  "lat": 32.8004101,
  "lon": -96.8193707,
  "tags": {
    "addr:city": "Dallas",
    "addr:housenumber": "1950",
    "addr:postcode": "75207",
    "addr:state": "TX",
    "addr:street": "North Stemmons Freeway",
    "addr:suite": "2033",
    "name": "Flexential Dallas - Downtown Dallas",
    "operator": "Flexential",
    "operator:wikidata": "Q115417504",
    "telecom": "data_center",
    "website": "https://www.flexential.com/data-centers/tx/dallas/downtown-data-center"
  }
},
{
  "type": "node",
  "id": 12112266917,
  "lat": 30.2457482,
  "lon": -81.5817226,
  "tags": {
    "addr:city": "Jacksonville",
    "addr:full": "4905 Belfort Road, Suite 145 Jacksonville, FL 32256 United States",
    "addr:housenumber": "4905",
    "addr:postcode": "32256",
    "addr:state": "FL",
    "addr:street": "Belfort Road",
    "addr:unit": "145",
    "name": "Flexential Jacksonville",
    "operator": "Flexential",
    "operator:wikidata": "Q115417504",
    "telecom": "data_center",
    "website": "https://www.flexential.com/data-centers/fl/jacksonville/data-center"
  }
},
{
  "type": "node",
  "id": 12112270180,
  "lat": 39.6610488,
  "lon": -104.8488321,
  "tags": {
    "addr:city": "Aurora",
    "addr:floor": "3",
    "addr:housenumber": "11900",
    "addr:postcode": "80014",
    "addr:state": "CO",
    "addr:street": "East Cornell Avenue",
    "addr:unit": "Building B",
    "name": "Flexential - Denver - Aurora",
    "operator": "Flexential",
    "operator:wikidata": "Q115417504",
    "telecom": "data_center"
  }
},
{
  "type": "node",
  "id": 12112295055,
  "lat": 35.9727294,
  "lon": -86.8084949,
  "tags": {
    "addr:city": "Brentwood",
    "addr:housenumber": "7100",
    "addr:postcode": "37027",
    "addr:state": "TN",
    "addr:street": "Commerce Way",
    "addr:unit": "25",
    "name": "Flexential Nashville - Brentwood",
    "operator": "Flexential",
    "operator:wikidata": "Q115417504",
    "telecom": "data_center",
    "website": "https://www.flexential.com/data-centers/tn/nashville/brentwood-data-center"
  }
},
{
  "type": "node",
  "id": 12112361725,
  "lat": 35.8505281,
  "lon": -78.8291431,
  "tags": {
    "addr:city": "Morrisville",
    "addr:full": "5150 McCrimmon Parkway #423 Morrisville, NC 27560 United States",
    "addr:housenumber": "5150",
    "addr:postcode": "27560",
    "addr:state": "NC",
    "addr:street": "McCrimmon Parkway",
    "addr:unit": "423",
    "name": "Flexential Raleigh",
    "operator": "Flexential",
    "operator:wikidata": "Q115417504",
    "telecom": "data_center",
    "website": "https://www.flexential.com/data-centers/nc/raleigh/data-center"
  }
},
{
  "type": "node",
  "id": 12112380995,
  "lat": 28.0372991,
  "lon": -82.5399781,
  "tags": {
    "addr:city": "Tampa",
    "addr:housenumber": "9417",
    "addr:postcode": "33634",
    "addr:state": "FL",
    "addr:street": "Corporate Lake Drive",
    "name": "Flexential Tampa - West",
    "operator": "Flexential",
    "operator:wikidata": "Q115417504",
    "telecom": "data_center"
  }
},
{
  "type": "node",
  "id": 12112382397,
  "lat": 40.3326480,
  "lon": -111.7278754,
  "tags": {
    "addr:city": "Lindon",
    "addr:housenumber": "333",
    "addr:postcode": "84042",
    "addr:state": "UT",
    "addr:street": "South 520 West",
    "addr:unit": "150",
    "name": "Flexential Salt Lake City - Lindon",
    "operator": "Flexential",
    "operator:wikidata": "Q115417504",
    "telecom": "data_center",
    "website": "https://www.flexential.com/data-centers/ut/salt-lake-city/lindon-data-center"
  }
},
{
  "type": "node",
  "id": 12221811811,
  "lat": 40.7199280,
  "lon": -74.0044583,
  "tags": {
    "addr:city": "New York",
    "addr:housenumber": "32",
    "addr:postcode": "10013",
    "addr:state": "NY",
    "addr:street": "Avenue of the Americas",
    "name": "Digital Realty New York JFK13",
    "operator": "Digital Realty",
    "operator:wikidata": "Q5275969",
    "ref": "JFK13",
    "telecom": "data_center",
    "website": "https://www.digitalrealty.com/data-centers/americas/new-york/jfk13"
  }
},
{
  "type": "node",
  "id": 12221880448,
  "lat": 40.7176766,
  "lon": -74.0084414,
  "tags": {
    "addr:city": "New York",
    "addr:housenumber": "60",
    "addr:postcode": "10013",
    "addr:state": "NY",
    "addr:street": "Hudson Street",
    "name": "Digital Realty New York JFK12",
    "operator": "Digital Realty",
    "operator:wikidata": "Q5275969",
    "ref": "JFK12",
    "telecom": "data_center",
    "website": "https://www.digitalrealty.com/data-centers/americas/new-york/jfk12"
  }
},
{
  "type": "node",
  "id": 12331366645,
  "lat": 33.7559857,
  "lon": -84.3911712,
  "tags": {
    "addr:city": "Atlanta",
    "addr:housenumber": "55",
    "addr:postcode": "30303",
    "addr:state": "GA",
    "addr:street": "Marietta Street",
    "name": "CoreSite AT1",
    "operator": "CoreSite",
    "operator:wikidata": "Q5170140",
    "ref": "AT1",
    "telecom": "data_center",
    "website": "https://www.coresite.com/data-center/at1-atlanta-ga"
  }
},
{
  "type": "node",
  "id": 12387534800,
  "lat": 35.0867385,
  "lon": -106.6153476,
  "tags": {
    "addr:city": "Albuquerque",
    "addr:housenumber": "2701",
    "addr:postcode": "87106",
    "addr:state": "NM",
    "addr:street": "Campus Boulevard Northeast",
    "name": "UNM Data Center",
    "operator": "UNM",
    "ref": "UNM",
    "telecom": "data_center"
  }
},
{
  "type": "node",
  "id": 12437277166,
  "lat": 37.3666621,
  "lon": -121.9628653,
  "tags": {
    "addr:housenumber": "2215",
    "addr:street": "Martin Avenue",
    "name": "Prime Santa Clara",
    "operator": "Prime",
    "telecom": "data_center",
    "website": "https://primedatacenters.com/santa-clara-data-centers/"
  }
},
{
  "type": "node",
  "id": 12452254071,
  "lat": 40.5503501,
  "lon": -74.4568563,
  "tags": {
    "name": "Open Data Centers Piscataway",
    "telecom": "data_center"
  }
},
{
  "type": "node",
  "id": 12471740457,
  "lat": 40.7853948,
  "lon": -74.0750122,
  "tags": {
    "name": "H5 Secaucus",
    "operator": "H5",
    "telecom": "data_center"
  }
},
{
  "type": "node",
  "id": 12550746951,
  "lat": 37.3228675,
  "lon": -121.9474176,
  "tags": {
    "addr:city": "San Jose",
    "addr:housenumber": "300",
    "addr:postcode": "95128",
    "addr:state": "CA",
    "addr:street": "Santana Row",
    "addr:unit": "400",
    "name": "Forescout Technologies, Inc.",
    "phone": "+1-408-213-3191",
    "telecom": "data_center",
    "website": "https://www.forescout.com/"
  }
},
{
  "type": "node",
  "id": 12682482760,
  "lat": 42.7356308,
  "lon": -73.8186650,
  "tags": {
    "addr:city": "Albany",
    "addr:housenumber": "10",
    "addr:postcode": "12205",
    "addr:state": "NY",
    "addr:street": "Airline Drive",
    "name": "Lumen Albany 4",
    "operator": "Lumen Technologies",
    "operator:wikidata": "Q5063092",
    "telecom": "data_center"
  }
},
{
  "type": "node",
  "id": 12695496267,
  "lat": 41.8535578,
  "lon": -87.6180475,
  "tags": {
    "addr:city": "Chicago",
    "addr:housenumber": "350",
    "addr:postcode": "60616",
    "addr:state": "IL",
    "addr:street": "East Cermak Road",
    "name": "Equinix Chicago Data Center - CH1",
    "operator": "Equinix",
    "operator:wikidata": "Q851641",
    "ref": "CH1",
    "telecom": "data_center",
    "website": "https://www.equinix.com/data-centers/americas-colocation/united-states-colocation/chicago-data-centers/ch1"
  }
},
{
  "type": "node",
  "id": 12708029111,
  "lat": 40.3155580,
  "lon": -74.6688514,
  "tags": {
    "addr:city": "Princeton",
    "addr:housenumber": "501",
    "addr:postcode": "08540",
    "addr:state": "NJ",
    "addr:street": "Farber Road",
    "addr:unit": "West",
    "name": "501 West",
    "telecom": "data_center"
  }
},
{
  "type": "node",
  "id": 12766117170,
  "lat": 40.6576957,
  "lon": -74.0048163,
  "tags": {
    "addr:city": "Brooklyn",
    "addr:housenumber": "882",
    "addr:state": "NY",
    "addr:street": "3rd Avenue",
    "name": "Dataverge",
    "operator": "Dataverge",
    "telecom": "data_center"
  }
},
{
  "type": "node",
  "id": 12793428582,
  "lat": 36.0994735,
  "lon": -95.8382826,
  "tags": {
    "name": "TulsaConnect DC3",
    "telecom": "data_center"
  }
},
{
  "type": "node",
  "id": 13019681063,
  "lat": 33.3566787,
  "lon": -111.6352356,
  "tags": {
    "addr:city": "Mesa",
    "addr:housenumber": "3223",
    "addr:postcode": "85212",
    "addr:state": "AZ",
    "addr:street": "South Ellsworth Road",
    "name": "Comarch",
    "telecom": "data_center"
  }
},
{
  "type": "node",
  "id": 13042311881,
  "lat": 34.0584789,
  "lon": -118.2359144,
  "tags": {
    "addr:city": "Los Angeles",
    "addr:housenumber": "900",
    "addr:postcode": "90012",
    "addr:state": "CA",
    "addr:street": "North Alameda Street",
    "check_date": "2025-08-01",
    "name": "CoreSite - LA2",
    "operator": "CoreSite",
    "operator:wikidata": "Q5170140",
    "ref": "LA2",
    "telecom": "data_center",
    "website": "https://www.coresite.com/data-center/la2-los-angeles-ca"
  }
},
{
  "type": "node",
  "id": 13154826378,
  "lat": 39.0160142,
  "lon": -77.4719540,
  "tags": {
    "addr:city": "Ashburn",
    "addr:housenumber": "44371",
    "addr:postcode": "20147",
    "addr:state": "VA",
    "addr:street": "Gigabit Plaza",
    "name": "NTT Ashburn VA7 Data Center",
    "operator": "NTT",
    "operator:wikidata": "Q1054787",
    "ref": "VA7",
    "telecom": "data_center",
    "website": "https://services.global.ntt/en-us/services-and-products/global-data-centers/global-locations/americas/ashburn-va7-data-center"
  }
},
{
  "type": "node",
  "id": 13154826379,
  "lat": 38.7999731,
  "lon": -77.6099636,
  "tags": {
    "addr:city": "Gainesville",
    "addr:housenumber": "7251",
    "addr:postcode": "20155",
    "addr:state": "VA",
    "addr:street": "Grove Hill Boulevard",
    "name": "NTT VA11 Data Center",
    "operator": "NTT",
    "operator:wikidata": "Q1054787",
    "ref": "VA11",
    "telecom": "data_center",
    "website": "https://services.global.ntt/en-us/services-and-products/global-data-centers/global-locations/americas/ashburn-va11-data-center"
  }
},
{
  "type": "node",
  "id": 13226718075,
  "lat": 43.0677161,
  "lon": -89.3922794,
  "tags": {
    "name": "Lumen Madison 1 Data Center",
    "operator": "Lumen Technologies",
    "operator:wikidata": "Q5063092",
    "telecom": "data_center"
  }
},
{
  "type": "node",
  "id": 13311012216,
  "lat": 36.0659290,
  "lon": -115.1385600,
  "tags": {
    "addr:city": "Las Vegas",
    "addr:housenumber": "1110",
    "addr:postcode": "89119",
    "addr:state": "NV",
    "addr:street": "Palms Airport Drive",
    "addr:unit": "110",
    "name": "Fiberhub LAS1",
    "operator": "Fiberhub",
    "phone": "+1 702-487-3838",
    "ref": "LAS1",
    "telecom": "data_center"
  }
},
{
  "type": "node",
  "id": 13409186015,
  "lat": 40.0879189,
  "lon": -75.3397205,
  "tags": {
    "addr:city": "King of Prussia",
    "addr:housenumber": "3400",
    "addr:state": "PA",
    "addr:street": "Horizon Drive",
    "name": "DāStor: 3400 Horizon Drive",
    "telecom": "data_center",
    "website": "https://dastorllc.com/locations/#horizon"
  }
},
{
  "type": "node",
  "id": 13465438761,
  "lat": 32.7784469,
  "lon": -96.7984960,
  "tags": {
    "addr:city": "Dallas",
    "addr:housenumber": "400",
    "addr:postcode": "75202",
    "addr:state": "TX",
    "addr:street": "South Akard Street",
    "addr:unit": "200",
    "name": "Rad Web Hosting",
    "smoking": "no",
    "telecom": "data_center"
  }
},
{
  "type": "node",
  "id": 13546262077,
  "lat": 38.3531768,
  "lon": -81.6961822,
  "tags": {
    "addr:city": "South Charleston",
    "addr:housenumber": "2020",
    "addr:postcode": "25303",
    "addr:state": "WV",
    "addr:street": "Union Carbide Drive",
    "addr:unit": "6000",
    "check_date": "2026-02-12",
    "level": "1",
    "name": "Alpha Federal",
    "operator": "Alpha Innovations",
    "telecom": "data_center",
    "website": "https://myalphainnovations.com/"
  }
},
{
  "type": "node",
  "id": 13603878193,
  "lat": 45.7430786,
  "lon": -108.6030144,
  "tags": {
    "name": "Parsec Data Management",
    "telecom": "data_center"
  }
},
{
  "type": "node",
  "id": 13639231258,
  "lat": 46.9741721,
  "lon": -96.8739403,
  "tags": {
    "addr:city": "Harwood",
    "addr:housenumber": "6805",
    "addr:postcode": "58042",
    "addr:state": "ND",
    "addr:street": "County Rd 81 N",
    "name": "Applied Digital",
    "telecom": "data_center"
  }
},
{
  "type": "node",
  "id": 13685576464,
  "lat": 37.4892338,
  "lon": -77.2474761,
  "tags": {
    "name": "RIC1 DC1",
    "operator": "Quality Technology Services",
    "operator:short": "QTS",
    "operator:wikidata": "Q18392800",
    "telecom": "data_center"
  }
},
{
  "type": "node",
  "id": 13685576465,
  "lat": 37.4886164,
  "lon": -77.2462097,
  "tags": {
    "name": "RIC1 DC2",
    "operator": "Quality Technology Services",
    "operator:short": "QTS",
    "operator:wikidata": "Q18392800",
    "telecom": "data_center"
  }
},
{
  "type": "node",
  "id": 13685576466,
  "lat": 37.4878581,
  "lon": -77.2448256,
  "tags": {
    "name": "RIC1 DC3",
    "operator": "Quality Technology Services",
    "operator:short": "QTS",
    "operator:wikidata": "Q18392800",
    "telecom": "data_center"
  }
},
{
  "type": "node",
  "id": 13720841436,
  "lat": 36.1532940,
  "lon": -95.9891930,
  "tags": {
    "branch": "DC1",
    "name": "TulsaConnect",
    "telecom": "data_center"
  }
},
{
  "type": "node",
  "id": 13720841437,
  "lat": 36.1485011,
  "lon": -95.9905140,
  "tags": {
    "branch": "Tulsa",
    "name": "Windstream",
    "telecom": "data_center"
  }
},
{
  "type": "node",
  "id": 13720841438,
  "lat": 36.1484524,
  "lon": -95.9908198,
  "tags": {
    "branch": "DC5",
    "name": "TulsaConnect",
    "telecom": "data_center"
  }
},
{
  "type": "node",
  "id": 13746843366,
  "lat": 45.5212569,
  "lon": -122.6817537,
  "tags": {
    "addr:city": "Portland",
    "addr:housenumber": "511",
    "addr:postcode": "97205",
    "addr:state": "OR",
    "addr:street": "Southwest 10th Avenue",
    "addr:unit": "#300",
    "name": "Digital Fortress - Portland 1",
    "operator": "Digital Fortress, Inc",
    "telecom": "data_center"
  }
},
{
  "type": "node",
  "id": 13746843367,
  "lat": 45.4762137,
  "lon": -122.7760868,
  "tags": {
    "addr:city": "Beaverton",
    "addr:housenumber": "9705",
    "addr:postcode": "97005",
    "addr:state": "OR",
    "addr:street": "Southwest Sunshine Court",
    "name": "Digital Fortress - Portland 2",
    "operator": "Digital Fortress, Inc",
    "telecom": "data_center"
  }
},
{
  "type": "node",
  "id": 13746843368,
  "lat": 45.4756340,
  "lon": -122.7764098,
  "tags": {
    "addr:city": "Beaverton",
    "addr:housenumber": "9610",
    "addr:postcode": "97005",
    "addr:state": "OR",
    "addr:street": "Southwest Sunshine Court",
    "name": "Digital Fortress - Portland 3",
    "operator": "Digital Fortress, Inc",
    "telecom": "data_center"
  }
},
{
  "type": "node",
  "id": 13748555787,
  "lat": 45.5316902,
  "lon": -122.6837652,
  "tags": {
    "addr:city": "Portland",
    "addr:housenumber": "1233",
    "addr:postcode": "97209",
    "addr:state": "OR",
    "addr:street": "Northwest 12th Avenue",
    "addr:unit": "201",
    "name": "H5 DC - Portland",
    "operator": "H5 Data Centers",
    "operator:wikidata": "Q136332488",
    "telecom": "data_center",
    "website": "https://h5datacenters.com/portland-data-center.html"
  }
},
{
  "type": "node",
  "id": 13748859030,
  "lat": 44.0506071,
  "lon": -123.0929782,
  "tags": {
    "addr:city": "Eugene",
    "addr:housenumber": "800",
    "addr:postcode": "97401",
    "addr:state": "OR",
    "addr:street": "Willamette Street",
    "name": "Date Center West - Eugene",
    "operator": "Data Center West, Inc.",
    "telecom": "data_center"
  }
},
{
  "type": "node",
  "id": 13860564221,
  "lat": 38.9982397,
  "lon": -77.4491455,
  "tags": {
    "addr:city": "Sterling",
    "addr:housenumber": "22280",
    "addr:postcode": "20166",
    "addr:state": "VA",
    "addr:street": "Randolph Drive",
    "name": "QTS Ashburn 2",
    "operator": "Quality Technology Services",
    "operator:short": "QTS",
    "operator:wikidata": "Q18392800",
    "ref": "DC2",
    "telecom": "data_center"
  }
},
{
  "type": "node",
  "id": 13873419223,
  "lat": 36.1532870,
  "lon": -95.9891910,
  "tags": {
    "branch": "321 South Boston",
    "name": "OCOSA",
    "telecom": "data_center"
  }
},
{
  "type": "node",
  "id": 13891340203,
  "lat": 38.9985084,
  "lon": -77.4406368,
  "tags": {
    "addr:city": "Sterling",
    "addr:housenumber": "22321",
    "addr:postcode": "20166",
    "addr:state": "VA",
    "addr:street": "Pacific Boulevard",
    "name": "Vantage VA16",
    "telecom": "data_center"
  }
},
{
  "type": "node",
  "id": 13891340204,
  "lat": 38.9994047,
  "lon": -77.4417901,
  "tags": {
    "addr:city": "Sterling",
    "addr:housenumber": "22321",
    "addr:postcode": "20166",
    "addr:state": "VA",
    "addr:street": "Pacific Boulevard",
    "name": "Vantage VA15",
    "telecom": "data_center"
  }
},
{
  "type": "node",
  "id": 13908533343,
  "lat": 41.1410436,
  "lon": -78.0974055,
  "tags": {
    "addr:city": "Karthaus",
    "addr:housenumber": "3160",
    "addr:state": "PA",
    "addr:street": "Paul Hoddman Road",
    "name": "Iron City No. 1 Power Generator and Compute Center",
    "telecom": "data_center"
  }
},
{
  "type": "way",
  "id": 25706343,
  "bounds": {
    "minlat": 32.8316339,
    "minlon": -97.0422895,
    "maxlat": 32.8337868,
    "maxlon": -97.0397672
  },
  "nodes": [
    280275523,
    280275524,
    280275525,
    280275526,
    280275533,
    4888135477,
    280275531,
    4888135476,
    4888135475,
    280275532,
    4888135474,
    280275530,
    280275527,
    280275528,
    280275529,
    4888135473,
    10976183280,
    280275522,
    4888135472,
    280275523
  ],
  "geometry": [
    { "lat": 32.8337868, "lon": -97.0410483 },
    { "lat": 32.8335110, "lon": -97.0407688 },
    { "lat": 32.8335893, "lon": -97.0406593 },
    { "lat": 32.8327091, "lon": -97.0397672 },
    { "lat": 32.8322567, "lon": -97.0403996 },
    { "lat": 32.8322454, "lon": -97.0403882 },
    { "lat": 32.8322101, "lon": -97.0404376 },
    { "lat": 32.8321991, "lon": -97.0404264 },
    { "lat": 32.8321482, "lon": -97.0404978 },
    { "lat": 32.8321600, "lon": -97.0405098 },
    { "lat": 32.8320781, "lon": -97.0406246 },
    { "lat": 32.8320858, "lon": -97.0406324 },
    { "lat": 32.8316339, "lon": -97.0412657 },
    { "lat": 32.8326471, "lon": -97.0422895 },
    { "lat": 32.8330915, "lon": -97.0416667 },
    { "lat": 32.8331388, "lon": -97.0417145 },
    { "lat": 32.8332132, "lon": -97.0416102 },
    { "lat": 32.8332685, "lon": -97.0415330 },
    { "lat": 32.8333679, "lon": -97.0416338 },
    { "lat": 32.8337868, "lon": -97.0410483 }
  ],
  "tags": {
    "addr:housenumber": "14950",
    "addr:street": "Kingsport Road",
    "building": "yes",
    "name": "Cyxtera Dallas-Fort Worth Data Center",
    "operator": "Cyxtera",
    "operator:wikidata": "Q111143924",
    "telecom": "data_center"
  }
},
{
  "type": "way",
  "id": 28544618,
  "bounds": {
    "minlat": 32.8000824,
    "minlon": -96.8205214,
    "maxlat": 32.8018246,
    "maxlon": -96.8185254
  },
  "nodes": [
    313553920,
    313553921,
    313553922,
    313553923,
    313553924,
    313553925,
    313553926,
    313553927,
    313553928,
    313553929,
    313553930,
    3195091675,
    3219682117,
    3195091670,
    3195091665,
    3195091666,
    313553933,
    313553934,
    3219682132,
    313553935,
    3219682134,
    313553936,
    313553937,
    313553938,
    313553939,
    313553920
  ],
  "geometry": [
    { "lat": 32.8009865, "lon": -96.8204884 },
    { "lat": 32.8017156, "lon": -96.8198908 },
    { "lat": 32.8016575, "lon": -96.8197905 },
    { "lat": 32.8018246, "lon": -96.8196536 },
    { "lat": 32.8015973, "lon": -96.8192612 },
    { "lat": 32.8016813, "lon": -96.8191923 },
    { "lat": 32.8014727, "lon": -96.8188323 },
    { "lat": 32.8013870, "lon": -96.8189026 },
    { "lat": 32.8011686, "lon": -96.8185254 },
    { "lat": 32.8010046, "lon": -96.8186598 },
    { "lat": 32.8009454, "lon": -96.8185576 },
    { "lat": 32.8004462, "lon": -96.8189668 },
    { "lat": 32.8004004, "lon": -96.8188893 },
    { "lat": 32.8003684, "lon": -96.8188324 },
    { "lat": 32.8000824, "lon": -96.8190656 },
    { "lat": 32.8002200, "lon": -96.8193031 },
    { "lat": 32.8001102, "lon": -96.8193931 },
    { "lat": 32.8003264, "lon": -96.8197663 },
    { "lat": 32.8002714, "lon": -96.8198113 },
    { "lat": 32.8002403, "lon": -96.8198368 },
    { "lat": 32.8003580, "lon": -96.8200375 },
    { "lat": 32.8004787, "lon": -96.8202485 },
    { "lat": 32.8005618, "lon": -96.8201804 },
    { "lat": 32.8007593, "lon": -96.8205214 },
    { "lat": 32.8009263, "lon": -96.8203845 },
    { "lat": 32.8009865, "lon": -96.8204884 }
  ],
  "tags": {
    "addr:city": "Dallas",
    "addr:country": "US",
    "addr:housenumber": "1950",
    "addr:postcode": "75207",
    "addr:state": "TX",
    "addr:street": "North Stemmons Freeway",
    "building": "yes",
    "name": "Equinix Infomart",
    "operator": "Equinix",
    "operator:wikidata": "Q851641",
    "telecom": "data_center"
  }
},
{
  "type": "way",
  "id": 29827954,
  "bounds": {
    "minlat": 42.3760945,
    "minlon": -71.0803777,
    "maxlat": 42.3773173,
    "maxlon": -71.0791376
  },
  "nodes": [
    6141561991,
    327509454,
    327512249,
    327518177,
    6141561991
  ],
  "geometry": [
    { "lat": 42.3760945, "lon": -71.0802909 },
    { "lat": 42.3772704, "lon": -71.0803777 },
    { "lat": 42.3773173, "lon": -71.0792243 },
    { "lat": 42.3761413, "lon": -71.0791376 },
    { "lat": 42.3760945, "lon": -71.0802909 }
  ],
  "tags": {
    "addr:city": "Somerville",
    "addr:housenumber": "70",
    "addr:postcode": "02143",
    "addr:state": "MA",
    "addr:street": "Inner Belt Road",
    "building": "yes",
    "clli": "SOVLMAAB",
    "name": "CoreSite BO1",
    "office": "it",
    "ref": "BO1",
    "telecom": "data_center"
  }
},
{
  "type": "way",
  "id": 30666790,
  "bounds": {
    "minlat": 34.0576277,
    "minlon": -118.2363145,
    "maxlat": 34.0585800,
    "maxlon": -118.2344732
  },
  "nodes": [
    4279675741,
    4279675748,
    4279675744,
    4279675735,
    4279675725,
    4279675728,
    4279675727,
    4279675722,
    4279675710,
    4279675716,
    4279675713,
    4279675707,
    4279675700,
    4279675703,
    4279675702,
    4279675699,
    4279675695,
    4279675693,
    4279675596,
    4279675617,
    339135945,
    4279675445,
    4279675442,
    4279675440,
    4279675434,
    4279675430,
    4279675431,
    4279675417,
    4279675415,
    4279675410,
    4279675403,
    4279675401,
    4279675400,
    339135944,
    4279675151,
    4279675143,
    4279675148,
    4279675157,
    4279675166,
    4279675162,
    4279675165,
    4279675168,
    4279675177,
    4279675173,
    4279675174,
    4279675180,
    4279675187,
    4279675182,
    4279675184,
    4279675290,
    4279675295,
    4279675292,
    4279675294,
    4279675296,
    4279675301,
    4279675297,
    4279675298,
    4279675305,
    4279675311,
    4279675308,
    4279675310,
    4279675317,
    4279675330,
    4279675321,
    4279675325,
    4279675335,
    4279675352,
    4279675341,
    4279675346,
    4279675358,
    4279675361,
    4279675345,
    4279675343,
    4279675340,
    4279675334,
    4279675331,
    4279675328,
    4279675320,
    4279675315,
    4279675323,
    4279675329,
    4279675332,
    4279675337,
    4279675342,
    4279675348,
    4279675350,
    4279675351,
    4279675349,
    4279675364,
    4279675373,
    4279675369,
    4279675370,
    4279675376,
    4279675380,
    4279675378,
    4279675379,
    4279675383,
    4279675391,
    4279675388,
    4279675390,
    4279675394,
    4279675405,
    4279675398,
    4279675402,
    4279675406,
    4279675414,
    4279675407,
    4279675409,
    4279675418,
    4279675425,
    4279675421,
    4279675422,
    4279675426,
    4279675436,
    4279675427,
    4279675433,
    4279675437,
    4279675444,
    4279675439,
    4279675441,
    4279675447,
    339135943,
    4279675474,
    4279675476,
    4279675484,
    4279675483,
    4279675598,
    4279675600,
    4279675614,
    4279675610,
    4279675641,
    4279675644,
    4279675653,
    4279675651,
    4279675669,
    4279675671,
    4279675676,
    4279675674,
    4279675686,
    4279675689,
    4279675692,
    4279675690,
    4279675709,
    4279675712,
    4279675719,
    4279675717,
    339135942,
    4279675741
  ],
  "geometry": [
    { "lat": 34.0585614, "lon": -118.2360477 },
    { "lat": 34.0585708, "lon": -118.2360439 },
    { "lat": 34.0585659, "lon": -118.2360264 },
    { "lat": 34.0585561, "lon": -118.2360303 },
    { "lat": 34.0585367, "lon": -118.2359609 },
    { "lat": 34.0585476, "lon": -118.2359565 },
    { "lat": 34.0585423, "lon": -118.2359376 },
    { "lat": 34.0585320, "lon": -118.2359417 },
    { "lat": 34.0585130, "lon": -118.2358735 },
    { "lat": 34.0585242, "lon": -118.2358690 },
    { "lat": 34.0585193, "lon": -118.2358514 },
    { "lat": 34.0585069, "lon": -118.2358564 },
    { "lat": 34.0584874, "lon": -118.2357867 },
    { "lat": 34.0584975, "lon": -118.2357826 },
    { "lat": 34.0584921, "lon": -118.2357634 },
    { "lat": 34.0584814, "lon": -118.2357677 },
    { "lat": 34.0584653, "lon": -118.2357099 },
    { "lat": 34.0584605, "lon": -118.2357119 },
    { "lat": 34.0582126, "lon": -118.2348556 },
    { "lat": 34.0582433, "lon": -118.2348428 },
    { "lat": 34.0581379, "lon": -118.2344732 },
    { "lat": 34.0580692, "lon": -118.2345015 },
    { "lat": 34.0580671, "lon": -118.2344942 },
    { "lat": 34.0580621, "lon": -118.2344909 },
    { "lat": 34.0580394, "lon": -118.2345016 },
    { "lat": 34.0580361, "lon": -118.2345065 },
    { "lat": 34.0580365, "lon": -118.2345146 },
    { "lat": 34.0579994, "lon": -118.2345298 },
    { "lat": 34.0579950, "lon": -118.2345236 },
    { "lat": 34.0579890, "lon": -118.2345210 },
    { "lat": 34.0579667, "lon": -118.2345316 },
    { "lat": 34.0579637, "lon": -118.2345380 },
    { "lat": 34.0579630, "lon": -118.2345451 },
    { "lat": 34.0576277, "lon": -118.2346799 },
    { "lat": 34.0576459, "lon": -118.2347440 },
    { "lat": 34.0576345, "lon": -118.2347487 },
    { "lat": 34.0576403, "lon": -118.2347689 },
    { "lat": 34.0576517, "lon": -118.2347642 },
    { "lat": 34.0576706, "lon": -118.2348305 },
    { "lat": 34.0576610, "lon": -118.2348345 },
    { "lat": 34.0576667, "lon": -118.2348547 },
    { "lat": 34.0576764, "lon": -118.2348507 },
    { "lat": 34.0576957, "lon": -118.2349185 },
    { "lat": 34.0576867, "lon": -118.2349221 },
    { "lat": 34.0576922, "lon": -118.2349416 },
    { "lat": 34.0577013, "lon": -118.2349379 },
    { "lat": 34.0577206, "lon": -118.2350060 },
    { "lat": 34.0577096, "lon": -118.2350105 },
    { "lat": 34.0577151, "lon": -118.2350299 },
    { "lat": 34.0577262, "lon": -118.2350253 },
    { "lat": 34.0577454, "lon": -118.2350930 },
    { "lat": 34.0577358, "lon": -118.2350970 },
    { "lat": 34.0577419, "lon": -118.2351184 },
    { "lat": 34.0577516, "lon": -118.2351144 },
    { "lat": 34.0577702, "lon": -118.2351801 },
    { "lat": 34.0577581, "lon": -118.2351850 },
    { "lat": 34.0577639, "lon": -118.2352051 },
    { "lat": 34.0577760, "lon": -118.2352002 },
    { "lat": 34.0577955, "lon": -118.2352688 },
    { "lat": 34.0577846, "lon": -118.2352732 },
    { "lat": 34.0577902, "lon": -118.2352931 },
    { "lat": 34.0578013, "lon": -118.2352886 },
    { "lat": 34.0578211, "lon": -118.2353582 },
    { "lat": 34.0578090, "lon": -118.2353632 },
    { "lat": 34.0578145, "lon": -118.2353825 },
    { "lat": 34.0578266, "lon": -118.2353776 },
    { "lat": 34.0578452, "lon": -118.2354431 },
    { "lat": 34.0578314, "lon": -118.2354488 },
    { "lat": 34.0578374, "lon": -118.2354702 },
    { "lat": 34.0578513, "lon": -118.2354645 },
    { "lat": 34.0578583, "lon": -118.2354891 },
    { "lat": 34.0578370, "lon": -118.2354978 },
    { "lat": 34.0578350, "lon": -118.2354905 },
    { "lat": 34.0578311, "lon": -118.2354857 },
    { "lat": 34.0578262, "lon": -118.2354825 },
    { "lat": 34.0578213, "lon": -118.2354823 },
    { "lat": 34.0578153, "lon": -118.2354868 },
    { "lat": 34.0578083, "lon": -118.2355004 },
    { "lat": 34.0577999, "lon": -118.2355035 },
    { "lat": 34.0578102, "lon": -118.2355371 },
    { "lat": 34.0578199, "lon": -118.2355327 },
    { "lat": 34.0578231, "lon": -118.2355358 },
    { "lat": 34.0578284, "lon": -118.2355374 },
    { "lat": 34.0578348, "lon": -118.2355375 },
    { "lat": 34.0578396, "lon": -118.2355334 },
    { "lat": 34.0578427, "lon": -118.2355279 },
    { "lat": 34.0578439, "lon": -118.2355205 },
    { "lat": 34.0578422, "lon": -118.2355136 },
    { "lat": 34.0578606, "lon": -118.2355054 },
    { "lat": 34.0578943, "lon": -118.2356160 },
    { "lat": 34.0578799, "lon": -118.2356223 },
    { "lat": 34.0578867, "lon": -118.2356443 },
    { "lat": 34.0579007, "lon": -118.2356381 },
    { "lat": 34.0579199, "lon": -118.2357052 },
    { "lat": 34.0579062, "lon": -118.2357108 },
    { "lat": 34.0579121, "lon": -118.2357315 },
    { "lat": 34.0579258, "lon": -118.2357259 },
    { "lat": 34.0579449, "lon": -118.2357931 },
    { "lat": 34.0579312, "lon": -118.2357988 },
    { "lat": 34.0579368, "lon": -118.2358184 },
    { "lat": 34.0579505, "lon": -118.2358128 },
    { "lat": 34.0579697, "lon": -118.2358802 },
    { "lat": 34.0579588, "lon": -118.2358847 },
    { "lat": 34.0579647, "lon": -118.2359053 },
    { "lat": 34.0579756, "lon": -118.2359008 },
    { "lat": 34.0579948, "lon": -118.2359682 },
    { "lat": 34.0579834, "lon": -118.2359730 },
    { "lat": 34.0579885, "lon": -118.2359912 },
    { "lat": 34.0580000, "lon": -118.2359864 },
    { "lat": 34.0580199, "lon": -118.2360562 },
    { "lat": 34.0580080, "lon": -118.2360611 },
    { "lat": 34.0580132, "lon": -118.2360792 },
    { "lat": 34.0580251, "lon": -118.2360743 },
    { "lat": 34.0580445, "lon": -118.2361425 },
    { "lat": 34.0580340, "lon": -118.2361468 },
    { "lat": 34.0580388, "lon": -118.2361635 },
    { "lat": 34.0580492, "lon": -118.2361592 },
    { "lat": 34.0580690, "lon": -118.2362284 },
    { "lat": 34.0580588, "lon": -118.2362325 },
    { "lat": 34.0580630, "lon": -118.2362471 },
    { "lat": 34.0580731, "lon": -118.2362429 },
    { "lat": 34.0580935, "lon": -118.2363145 },
    { "lat": 34.0581465, "lon": -118.2362927 },
    { "lat": 34.0581494, "lon": -118.2363028 },
    { "lat": 34.0581664, "lon": -118.2362957 },
    { "lat": 34.0581636, "lon": -118.2362857 },
    { "lat": 34.0582194, "lon": -118.2362627 },
    { "lat": 34.0582222, "lon": -118.2362723 },
    { "lat": 34.0582380, "lon": -118.2362658 },
    { "lat": 34.0582353, "lon": -118.2362561 },
    { "lat": 34.0582915, "lon": -118.2362330 },
    { "lat": 34.0582947, "lon": -118.2362443 },
    { "lat": 34.0583116, "lon": -118.2362373 },
    { "lat": 34.0583084, "lon": -118.2362260 },
    { "lat": 34.0583651, "lon": -118.2362028 },
    { "lat": 34.0583682, "lon": -118.2362137 },
    { "lat": 34.0583856, "lon": -118.2362066 },
    { "lat": 34.0583825, "lon": -118.2361956 },
    { "lat": 34.0584396, "lon": -118.2361721 },
    { "lat": 34.0584425, "lon": -118.2361830 },
    { "lat": 34.0584583, "lon": -118.2361770 },
    { "lat": 34.0584550, "lon": -118.2361649 },
    { "lat": 34.0585127, "lon": -118.2361428 },
    { "lat": 34.0585154, "lon": -118.2361529 },
    { "lat": 34.0585293, "lon": -118.2361476 },
    { "lat": 34.0585260, "lon": -118.2361351 },
    { "lat": 34.0585800, "lon": -118.2361144 },
    { "lat": 34.0585614, "lon": -118.2360477 }
  ],
  "tags": {
    "addr:city": "Los Angeles",
    "addr:housenumber": "900",
    "addr:postcode": "90012",
    "addr:state": "CA",
    "addr:street": "Alameda St",
    "addr:street_direction_prefix": "N",
    "amenity": "post_office",
    "building": "commercial",
    "building:levels": "2",
    "clli": "LSANCAVJ",
    "ele": "125.7",
    "gnis:feature_id": "247727",
    "height": "39.2",
    "heritage": "2",
    "heritage:operator": "nrhp",
    "heritage:website": "http://focus.nps.gov/AssetDetail/NRIS/85000131",
    "historic": "building",
    "image": "https://commons.wikimedia.org/wiki/File:U.S._Post_Office_-_Los_Angeles_Terminal_Annex.JPG",
    "lacounty:ain": "5409015016",
    "lacounty:bld_id": "490167843620",
    "name": "USPO Terminal Annex",
    "operator": "United States Postal Service",
    "operator:short": "USPS",
    "operator:type": "public",
    "operator:website": "https://www.usps.com",
    "operator:wikidata": "Q668687",
    "operator:wikipedia": "en:United States Postal Service",
    "ref:nrhp": "85000131",
    "short_name": "USPS",
    "source": "survey;image;usgs_imagery",
    "source_ref": "AM909_DSCR0634",
    "start_date": "1938",
    "telecom": "data_center",
    "wikidata": "Q2466390",
    "wikimedia_commons": "Category:United_States_Post_Office_–_Los_Angeles_Terminal_Annex",
    "wikipedia": "en:U.S. Post Office-Los Angeles Terminal Annex"
  }
},
{
  "type": "way",
  "id": 30827429,
  "bounds": {
    "minlat": 32.7780311,
    "minlon": -96.7989692,
    "maxlat": 32.7785903,
    "maxlon": -96.7979022
  },
  "nodes": [
    4661015655,
    4661015654,
    4661015653,
    4661015652,
    4661015651,
    4661015650,
    342353509,
    4661015649,
    4661015648,
    4661015647,
    4661015646,
    342353511,
    342353504,
    4661015645,
    4661015655
  ],
  "geometry": [
    { "lat": 32.7785446, "lon": -96.7981534 },
    { "lat": 32.7785655, "lon": -96.7980568 },
    { "lat": 32.7783866, "lon": -96.7980020 },
    { "lat": 32.7783707, "lon": -96.7980754 },
    { "lat": 32.7782484, "lon": -96.7980379 },
    { "lat": 32.7782704, "lon": -96.7979363 },
    { "lat": 32.7781595, "lon": -96.7979022 },
    { "lat": 32.7780311, "lon": -96.7984923 },
    { "lat": 32.7781210, "lon": -96.7985200 },
    { "lat": 32.7781072, "lon": -96.7985833 },
    { "lat": 32.7781229, "lon": -96.7985882 },
    { "lat": 32.7780626, "lon": -96.7988592 },
    { "lat": 32.7784118, "lon": -96.7989692 },
    { "lat": 32.7785903, "lon": -96.7981675 },
    { "lat": 32.7785446, "lon": -96.7981534 }
  ],
  "tags": {
    "addr:city": "Dallas",
    "addr:housenumber": "400",
    "addr:postcode": "75202",
    "addr:state": "TX",
    "addr:street": "South Akard Street",
    "building": "commercial",
    "name": "DataBank",
    "smoking": "no",
    "telecom": "data_center"
  }
},
{
  "type": "way",
  "id": 31250931,
  "bounds": {
    "minlat": 39.3034288,
    "minlon": -84.3122682,
    "maxlat": 39.3043594,
    "maxlon": -84.3109571
  },
  "nodes": [
    347439567,
    347439568,
    347439569,
    347439570,
    347439571,
    347439572,
    347439573,
    347439574,
    347439575,
    347439576,
    347439577,
    12454329056,
    347439578,
    347439579,
    347439580,
    347439581,
    347439582,
    347439583,
    347439584,
    347439585,
    347439586,
    347439587,
    347439588,
    347439589,
    347439590,
    347439591,
    347439592,
    347439593,
    347439594,
    347439595,
    347439596,
    347439597,
    347439598,
    347439599,
    12454329057,
    347439600,
    347439601,
    347439602,
    347439567
  ],
  "geometry": [
    { "lat": 39.3038738, "lon": -84.3122430 },
    { "lat": 39.3036029, "lon": -84.3122682 },
    { "lat": 39.3035993, "lon": -84.3122035 },
    { "lat": 39.3035497, "lon": -84.3122081 },
    { "lat": 39.3035453, "lon": -84.3121278 },
    { "lat": 39.3034812, "lon": -84.3121337 },
    { "lat": 39.3034288, "lon": -84.3111841 },
    { "lat": 39.3034714, "lon": -84.3111802 },
    { "lat": 39.3034669, "lon": -84.3110976 },
    { "lat": 39.3035286, "lon": -84.3110919 },
    { "lat": 39.3035246, "lon": -84.3110184 },
    { "lat": 39.3038593, "lon": -84.3109876 },
    { "lat": 39.3041916, "lon": -84.3109571 },
    { "lat": 39.3041947, "lon": -84.3110128 },
    { "lat": 39.3042451, "lon": -84.3110082 },
    { "lat": 39.3042495, "lon": -84.3110887 },
    { "lat": 39.3043064, "lon": -84.3110835 },
    { "lat": 39.3043594, "lon": -84.3120451 },
    { "lat": 39.3042970, "lon": -84.3120508 },
    { "lat": 39.3043011, "lon": -84.3121253 },
    { "lat": 39.3042510, "lon": -84.3121299 },
    { "lat": 39.3042546, "lon": -84.3121941 },
    { "lat": 39.3039856, "lon": -84.3122189 },
    { "lat": 39.3039669, "lon": -84.3118803 },
    { "lat": 39.3041219, "lon": -84.3118660 },
    { "lat": 39.3040920, "lon": -84.3113272 },
    { "lat": 39.3040031, "lon": -84.3113355 },
    { "lat": 39.3040107, "lon": -84.3114735 },
    { "lat": 39.3039989, "lon": -84.3114746 },
    { "lat": 39.3040086, "lon": -84.3116489 },
    { "lat": 39.3038970, "lon": -84.3116593 },
    { "lat": 39.3038864, "lon": -84.3114683 },
    { "lat": 39.3039426, "lon": -84.3114630 },
    { "lat": 39.3039357, "lon": -84.3113399 },
    { "lat": 39.3038788, "lon": -84.3113452 },
    { "lat": 39.3036523, "lon": -84.3113662 },
    { "lat": 39.3036826, "lon": -84.3119105 },
    { "lat": 39.3038544, "lon": -84.3118945 },
    { "lat": 39.3038738, "lon": -84.3122430 }
  ],
  "tags": {
    "building": "yes",
    "name": "CyrusOne Cincinnati-Mason CIN3",
    "operator": "CyrusOne",
    "operator:wikidata": "Q16953751",
    "ref": "CIN3",
    "telecom": "data_center",
    "website": "https://www.cyrusone.com/data-centers/north-america/ohio/cin3-cincinnati"
  }
},
{
  "type": "way",
  "id": 31800424,
  "bounds": {
    "minlat": 32.8276326,
    "minlon": -117.1307723,
    "maxlat": 32.8281557,
    "maxlon": -117.1290827
  },
  "nodes": [
    356065468,
    355946641,
    355989130,
    355957343,
    356067855,
    355942484,
    355978806,
    356051903,
    356065468
  ],
  "geometry": [
    { "lat": 32.8281557, "lon": -117.1298738 },
    { "lat": 32.8280664, "lon": -117.1298729 },
    { "lat": 32.8280784, "lon": -117.1290908 },
    { "lat": 32.8276509, "lon": -117.1290827 },
    { "lat": 32.8276326, "lon": -117.1307604 },
    { "lat": 32.8280696, "lon": -117.1307723 },
    { "lat": 32.8280706, "lon": -117.1301866 },
    { "lat": 32.8281535, "lon": -117.1301837 },
    { "lat": 32.8281557, "lon": -117.1298738 }
  ],
  "tags": {
    "addr:city": "San Diego",
    "addr:country": "US",
    "addr:housenumber": "9305",
    "addr:postcode": "92123",
    "addr:state": "CA",
    "addr:street": "Lightwave Avenue",
    "building": "industrial",
    "clli": "SNDGCALW",
    "name": "LightEdge SAN1",
    "sangis:OBJECTID": "615",
    "sangis:TYPE": "Industrial",
    "source": "SanGIS Footprints_Nonresidential_SD public domain (http://www.sangis.org/)",
    "telecom": "data_center"
  }
},
{
  "type": "way",
  "id": 31803515,
  "bounds": {
    "minlat": 32.8419548,
    "minlon": -117.1697802,
    "maxlat": 32.8427561,
    "maxlon": -117.1690649
  },
  "nodes": [
    356025987,
    355935072,
    355968468,
    356038567,
    355964668,
    355995478,
    356002528,
    356046073,
    356059963,
    356025987
  ],
  "geometry": [
    { "lat": 32.8419548, "lon": -117.1691303 },
    { "lat": 32.8420298, "lon": -117.1697802 },
    { "lat": 32.8422421, "lon": -117.1697455 },
    { "lat": 32.8422158, "lon": -117.1695178 },
    { "lat": 32.8427561, "lon": -117.1694295 },
    { "lat": 32.8427270, "lon": -117.1691770 },
    { "lat": 32.8426075, "lon": -117.1690673 },
    { "lat": 32.8423595, "lon": -117.1691079 },
    { "lat": 32.8423546, "lon": -117.1690649 },
    { "lat": 32.8419548, "lon": -117.1691303 }
  ],
  "tags": {
    "addr:city": "San Diego",
    "addr:housenumber": "5761",
    "addr:postcode": "92111",
    "addr:state": "CA",
    "addr:street": "Copley Drive",
    "addr:suite": "150B",
    "building": "yes",
    "building_type": "industrial",
    "name": "EdgeConneX San Diego",
    "operator": "EdgeConneX",
    "operator:wikidata": "Q115477226",
    "sangis:OBJECTID": "61",
    "sangis:TYPE": "Industrial",
    "source": "SanGIS Footprints_Nonresidential_SD public domain (http://www.sangis.org/)",
    "telecom": "data_center",
    "website": "https://www.edgeconnex.com/locations/americas/san-diego-ca/"
  }
},
{
  "type": "way",
  "id": 32560290,
  "bounds": {
    "minlat": 38.6499885,
    "minlon": -121.4931742,
    "maxlat": 38.6508118,
    "maxlon": -121.4907180
  },
  "nodes": [
    366206878,
    366206879,
    366206880,
    6876856118,
    366206881,
    366206878
  ],
  "geometry": [
    { "lat": 38.6507922, "lon": -121.4931742 },
    { "lat": 38.6508118, "lon": -121.4907304 },
    { "lat": 38.6500059, "lon": -121.4907180 },
    { "lat": 38.6500042, "lon": -121.4909483 },
    { "lat": 38.6499885, "lon": -121.4931641 },
    { "lat": 38.6507922, "lon": -121.4931742 }
  ],
  "tags": {
    "addr:city": "Sacramento",
    "addr:housenumber": "1312",
    "addr:postcode": "95834",
    "addr:state": "CA",
    "addr:street": "Striker Avenue",
    "building": "yes",
    "clli": "NSCRCA11",
    "name": "RagingWire CA2",
    "operator": "NTT",
    "operator:wikidata": "Q1054787",
    "ref": "CA2",
    "telecom": "data_center"
  }
},
{
  "type": "way",
  "id": 32560292,
  "bounds": {
    "minlat": 38.6500346,
    "minlon": -121.4903769,
    "maxlat": 38.6508292,
    "maxlon": -121.4879967
  },
  "nodes": [
    366206890,
    366206891,
    366206892,
    366206893,
    6876856119,
    366206890
  ],
  "geometry": [
    { "lat": 38.6500346, "lon": -121.4903694 },
    { "lat": 38.6508134, "lon": -121.4903769 },
    { "lat": 38.6508292, "lon": -121.4880033 },
    { "lat": 38.6500500, "lon": -121.4879967 },
    { "lat": 38.6500365, "lon": -121.4900793 },
    { "lat": 38.6500346, "lon": -121.4903694 }
  ],
  "tags": {
    "addr:city": "Sacramento",
    "addr:housenumber": "1200",
    "addr:postcode": "95834",
    "addr:state": "CA",
    "addr:street": "Striker Avenue",
    "building": "yes",
    "clli": "NSCRCA11",
    "name": "RagingWire CA1",
    "operator": "NTT",
    "operator:wikidata": "Q1054787",
    "ref": "CA1",
    "telecom": "data_center"
  }
},
{
  "type": "way",
  "id": 34770750,
  "bounds": {
    "minlat": 34.0800711,
    "minlon": -84.2697126,
    "maxlat": 34.0840445,
    "maxlon": -84.2648716
  },
  "nodes": [
    406042703,
    407317850,
    407317849,
    12591728869,
    407317877,
    407317875,
    405968593,
    405968591,
    12591728892,
    407318414,
    406042705,
    406042703
  ],
  "geometry": [
    { "lat": 34.0821551, "lon": -84.2654980 },
    { "lat": 34.0800711, "lon": -84.2664059 },
    { "lat": 34.0810411, "lon": -84.2692375 },
    { "lat": 34.0820630, "lon": -84.2688944 },
    { "lat": 34.0821951, "lon": -84.2688500 },
    { "lat": 34.0824757, "lon": -84.2697126 },
    { "lat": 34.0840445, "lon": -84.2692710 },
    { "lat": 34.0837975, "lon": -84.2676010 },
    { "lat": 34.0833121, "lon": -84.2656506 },
    { "lat": 34.0831259, "lon": -84.2648716 },
    { "lat": 34.0830498, "lon": -84.2650375 },
    { "lat": 34.0821551, "lon": -84.2654980 }
  ],
  "tags": {
    "landuse": "industrial",
    "name": "Hewlett-Packard",
    "telecom": "data_center"
  }
},
{
  "type": "way",
  "id": 35491576,
  "bounds": {
    "minlat": 37.2409035,
    "minlon": -121.7842088,
    "maxlat": 37.2422915,
    "maxlon": -121.7824465
  },
  "nodes": [
    9234195222,
    9234195218,
    9234195223,
    416173257,
    9234101014,
    9234101015,
    9234195220,
    9234101012,
    9234195217,
    9234101013,
    9234195219,
    9234195224,
    9234101016,
    9234195221,
    9234101010,
    9234101009,
    416173260,
    4209730319,
    4209730324,
    416173263,
    4209730325,
    416173253,
    9234101011,
    4209730354,
    4209730353,
    4209730350,
    9234195222
  ],
  "geometry": [
    { "lat": 37.2418049, "lon": -121.7826024 },
    { "lat": 37.2417142, "lon": -121.7824512 },
    { "lat": 37.2416993, "lon": -121.7824654 },
    { "lat": 37.2416880, "lon": -121.7824465 },
    { "lat": 37.2415675, "lon": -121.7825605 },
    { "lat": 37.2415452, "lon": -121.7825565 },
    { "lat": 37.2415373, "lon": -121.7825641 },
    { "lat": 37.2415566, "lon": -121.7825964 },
    { "lat": 37.2412539, "lon": -121.7828827 },
    { "lat": 37.2411370, "lon": -121.7826877 },
    { "lat": 37.2410519, "lon": -121.7827683 },
    { "lat": 37.2411688, "lon": -121.7829633 },
    { "lat": 37.2410909, "lon": -121.7830370 },
    { "lat": 37.2410801, "lon": -121.7830190 },
    { "lat": 37.2409075, "lon": -121.7831823 },
    { "lat": 37.2409183, "lon": -121.7832003 },
    { "lat": 37.2409035, "lon": -121.7832143 },
    { "lat": 37.2412010, "lon": -121.7837106 },
    { "lat": 37.2412321, "lon": -121.7837625 },
    { "lat": 37.2414998, "lon": -121.7842088 },
    { "lat": 37.2416396, "lon": -121.7840765 },
    { "lat": 37.2422915, "lon": -121.7834597 },
    { "lat": 37.2418460, "lon": -121.7827166 },
    { "lat": 37.2417996, "lon": -121.7826392 },
    { "lat": 37.2418250, "lon": -121.7826150 },
    { "lat": 37.2418193, "lon": -121.7826050 },
    { "lat": 37.2418049, "lon": -121.7826024 }
  ],
  "tags": {
    "addr:city": "San Jose",
    "addr:housenumber": "11",
    "addr:postcode": "95119",
    "addr:state": "CA",
    "addr:street": "Great Oaks Boulevard",
    "building": "data_center",
    "clli": "SNJSCA",
    "ele": "71.27",
    "height": "8.39",
    "name": "Equinix SV1",
    "operator": "Equinix",
    "operator:wikidata": "Q851641",
    "ref": "SV1",
    "telecom": "data_center",
    "website": "https://www.equinix.co.uk/locations/united-states-colocation/silicon-valley-data-centers/sv1/"
  }
},
{
  "type": "way",
  "id": 36897140,
  "bounds": {
    "minlat": 39.2938562,
    "minlon": -84.4124303,
    "maxlat": 39.2942402,
    "maxlon": -84.4117961
  },
  "nodes": [
    9407353084,
    428995066,
    428995069,
    428995068,
    428995067,
    9407353084
  ],
  "geometry": [
    { "lat": 39.2939297, "lon": -84.4123552 },
    { "lat": 39.2940608, "lon": -84.4124303 },
    { "lat": 39.2942402, "lon": -84.4119135 },
    { "lat": 39.2940355, "lon": -84.4117961 },
    { "lat": 39.2938562, "lon": -84.4123130 },
    { "lat": 39.2939297, "lon": -84.4123552 }
  ],
  "tags": {
    "building": "yes",
    "building:levels": "2",
    "source": "Yahoo",
    "telecom": "data_center"
  }
},
{
  "type": "way",
  "id": 37877544,
  "bounds": {
    "minlat": 37.3731440,
    "minlon": -121.9884264,
    "maxlat": 37.3737949,
    "maxlon": -121.9871741
  },
  "nodes": [
    444496631,
    4166451728,
    4166451729,
    4166451730,
    4166451732,
    4166451731,
    4166451727,
    444496633,
    444496634,
    444496635,
    444496631
  ],
  "geometry": [
    { "lat": 37.3736746, "lon": -121.9884264 },
    { "lat": 37.3736748, "lon": -121.9882927 },
    { "lat": 37.3737261, "lon": -121.9882929 },
    { "lat": 37.3737272, "lon": -121.9881683 },
    { "lat": 37.3737931, "lon": -121.9881727 },
    { "lat": 37.3737949, "lon": -121.9876621 },
    { "lat": 37.3736761, "lon": -121.9876587 },
    { "lat": 37.3736735, "lon": -121.9871781 },
    { "lat": 37.3731440, "lon": -121.9871741 },
    { "lat": 37.3731441, "lon": -121.9884197 },
    { "lat": 37.3736746, "lon": -121.9884264 }
  ],
  "tags": {
    "addr:city": "Sunnyvale",
    "addr:housenumber": "1380",
    "addr:postcode": "94086",
    "addr:state": "CA",
    "addr:street": "Kifer Road",
    "building": "commercial",
    "building:levels": "1",
    "name": "Lumen Sunnyvale 1",
    "operator": "Lumen Technologies",
    "operator:wikidata": "Q5063092",
    "smoking": "no",
    "telecom": "data_center"
  }
},
{
  "type": "way",
  "id": 37947313,
  "bounds": {
    "minlat": 37.3784127,
    "minlon": -121.9563174,
    "maxlat": 37.3792456,
    "maxlon": -121.9555340
  },
  "nodes": [
    445626155,
    6548430767,
    6548430766,
    445626164,
    445626167,
    445626170,
    12437277159,
    445626155
  ],
  "geometry": [
    { "lat": 37.3792456, "lon": -121.9563089 },
    { "lat": 37.3792415, "lon": -121.9556805 },
    { "lat": 37.3790789, "lon": -121.9556822 },
    { "lat": 37.3790779, "lon": -121.9555340 },
    { "lat": 37.3784127, "lon": -121.9555409 },
    { "lat": 37.3784178, "lon": -121.9563174 },
    { "lat": 37.3788386, "lon": -121.9563131 },
    { "lat": 37.3792456, "lon": -121.9563089 }
  ],
  "tags": {
    "addr:city": "Santa Clara",
    "addr:housenumber": "3223",
    "addr:postcode": "95054",
    "addr:state": "CA",
    "addr:street": "Kenneth Street",
    "building": "yes",
    "name": "OpenColo",
    "telecom": "data_center",
    "website": "https://www.opencolo.com/"
  }
},
{
  "type": "way",
  "id": 37947314,
  "bounds": {
    "minlat": 37.3778816,
    "minlon": -121.9553321,
    "maxlat": 37.3790591,
    "maxlon": -121.9546356
  },
  "nodes": [
    445626640,
    445626642,
    445626646,
    445626648,
    445626640
  ],
  "geometry": [
    { "lat": 37.3790591, "lon": -121.9553321 },
    { "lat": 37.3789091, "lon": -121.9546369 },
    { "lat": 37.3778819, "lon": -121.9546356 },
    { "lat": 37.3778816, "lon": -121.9553313 },
    { "lat": 37.3790591, "lon": -121.9553321 }
  ],
  "tags": {
    "addr:city": "Santa Clara",
    "addr:housenumber": "1350",
    "addr:state": "CA",
    "addr:street": "Duane Avenue",
    "building": "equinix",
    "name": "Equinix Santa Clara SV2",
    "operator": "Equinix",
    "operator:wikidata": "Q851641",
    "ref": "SV2",
    "telecom": "data_center",
    "website": "https://www.equinix.com/data-centers/americas-colocation/united-states-colocation/silicon-valley-data-centers/sv2"
  }
},
{
  "type": "way",
  "id": 37947315,
  "bounds": {
    "minlat": 37.3777762,
    "minlon": -121.9544151,
    "maxlat": 37.3782987,
    "maxlon": -121.9538402
  },
  "nodes": [
    445626997,
    4313558727,
    4313558729,
    4313558730,
    4313558728,
    4313558719,
    445627001,
    4313558722,
    4313558723,
    4313558724,
    4313558725,
    445627005,
    445627009,
    445627012,
    445627016,
    445626997
  ],
  "geometry": [
    { "lat": 37.3782540, "lon": -121.9544151 },
    { "lat": 37.3782539, "lon": -121.9540031 },
    { "lat": 37.3782987, "lon": -121.9540031 },
    { "lat": 37.3782987, "lon": -121.9539348 },
    { "lat": 37.3782566, "lon": -121.9539348 },
    { "lat": 37.3782566, "lon": -121.9538941 },
    { "lat": 37.3782566, "lon": -121.9538811 },
    { "lat": 37.3780778, "lon": -121.9538810 },
    { "lat": 37.3780778, "lon": -121.9538403 },
    { "lat": 37.3780150, "lon": -121.9538402 },
    { "lat": 37.3780150, "lon": -121.9538845 },
    { "lat": 37.3778393, "lon": -121.9538844 },
    { "lat": 37.3778393, "lon": -121.9542571 },
    { "lat": 37.3777762, "lon": -121.9542571 },
    { "lat": 37.3777762, "lon": -121.9544151 },
    { "lat": 37.3782540, "lon": -121.9544151 }
  ],
  "tags": {
    "addr:housenumber": "3080",
    "addr:street": "Raymond Street",
    "building": "data_center",
    "name": "Layer42 Santa Clara",
    "operator": "Layer42",
    "telecom": "data_center"
  }
},
{
  "type": "way",
  "id": 38305431,
  "bounds": {
    "minlat": 37.3717801,
    "minlon": -121.9742006,
    "maxlat": 37.3730353,
    "maxlon": -121.9730933
  },
  "nodes": [
    452084700,
    8176961070,
    8176961071,
    8176961072,
    8176961073,
    8176961074,
    8176961075,
    452084701,
    452084702,
    452084703,
    8176961069,
    452084704,
    8176961068,
    452084705,
    452084700
  ],
  "geometry": [
    { "lat": 37.3728786, "lon": -121.9741996 },
    { "lat": 37.3728781, "lon": -121.9737195 },
    { "lat": 37.3730163, "lon": -121.9737193 },
    { "lat": 37.3730158, "lon": -121.9731546 },
    { "lat": 37.3730353, "lon": -121.9731545 },
    { "lat": 37.3730352, "lon": -121.9730933 },
    { "lat": 37.3728772, "lon": -121.9730936 },
    { "lat": 37.3728773, "lon": -121.9731173 },
    { "lat": 37.3717801, "lon": -121.9731190 },
    { "lat": 37.3717810, "lon": -121.9740344 },
    { "lat": 37.3718545, "lon": -121.9740343 },
    { "lat": 37.3718546, "lon": -121.9740984 },
    { "lat": 37.3722613, "lon": -121.9740978 },
    { "lat": 37.3722614, "lon": -121.9742006 },
    { "lat": 37.3728786, "lon": -121.9741996 }
  ],
  "tags": {
    "addr:housenumber": "2820",
    "addr:street": "Northwestern Parkway",
    "building": "data_center",
    "name": "Digital Realty Silicon Valley SJC34",
    "operator": "Digital Realty",
    "operator:wikidata": "Q5275969",
    "telecom": "data_center"
  }
},
{
  "type": "way",
  "id": 38305568,
  "bounds": {
    "minlat": 37.3710209,
    "minlon": -121.9703132,
    "maxlat": 37.3719217,
    "maxlon": -121.9690520
  },
  "nodes": [
    4558371142,
    4558371161,
    452086516,
    4558371155,
    452086506,
    4558371143,
    4558371146,
    4558371145,
    4558371144,
    452086509,
    452086511,
    685319329,
    452086512,
    685319333,
    452086513,
    685319337,
    685319339,
    452086514,
    685319342,
    685319344,
    452086515,
    4558371162,
    4558371141,
    4558371142
  ],
  "geometry": [
    { "lat": 37.3710209, "lon": -121.9700015 },
    { "lat": 37.3711466, "lon": -121.9700037 },
    { "lat": 37.3711487, "lon": -121.9703086 },
    { "lat": 37.3715923, "lon": -121.9703116 },
    { "lat": 37.3718297, "lon": -121.9703132 },
    { "lat": 37.3718308, "lon": -121.9696969 },
    { "lat": 37.3719206, "lon": -121.9696972 },
    { "lat": 37.3719217, "lon": -121.9691735 },
    { "lat": 37.3718318, "lon": -121.9691732 },
    { "lat": 37.3718318, "lon": -121.9691552 },
    { "lat": 37.3718318, "lon": -121.9690520 },
    { "lat": 37.3713224, "lon": -121.9690600 },
    { "lat": 37.3713021, "lon": -121.9690922 },
    { "lat": 37.3713117, "lon": -121.9691392 },
    { "lat": 37.3713117, "lon": -121.9691955 },
    { "lat": 37.3712968, "lon": -121.9692491 },
    { "lat": 37.3712776, "lon": -121.9692934 },
    { "lat": 37.3712510, "lon": -121.9693283 },
    { "lat": 37.3712169, "lon": -121.9693564 },
    { "lat": 37.3711796, "lon": -121.9693685 },
    { "lat": 37.3711423, "lon": -121.9693765 },
    { "lat": 37.3711461, "lon": -121.9699285 },
    { "lat": 37.3710220, "lon": -121.9699264 },
    { "lat": 37.3710209, "lon": -121.9700015 }
  ],
  "tags": {
    "addr:city": "Santa Clara",
    "addr:housenumber": "2401",
    "addr:postcode": "95051",
    "addr:state": "CA",
    "addr:street": "Walsh Avenue",
    "building": "data_center",
    "name": "Csquare SFO1",
    "operator": "Csquare",
    "telecom": "data_center",
    "website": "https://www.csquare.com/data-centers/silicon-valley#santaclara-sfo1"
  }
},
{
  "type": "way",
  "id": 38305611,
  "bounds": {
    "minlat": 37.3727960,
    "minlon": -121.9733155,
    "maxlat": 37.3738191,
    "maxlon": -121.9722400
  },
  "nodes": [
    452087214,
    452087215,
    12437277177,
    12437277178,
    12437277179,
    452087217,
    452087214
  ],
  "geometry": [
    { "lat": 37.3738191, "lon": -121.9733144 },
    { "lat": 37.3738177, "lon": -121.9722400 },
    { "lat": 37.3727960, "lon": -121.9722423 },
    { "lat": 37.3727967, "lon": -121.9728089 },
    { "lat": 37.3732966, "lon": -121.9728078 },
    { "lat": 37.3732973, "lon": -121.9733155 },
    { "lat": 37.3738191, "lon": -121.9733144 }
  ],
  "tags": {
    "building": "data_center",
    "operator": "Vantage",
    "telecom": "data_center"
  }
},
{
  "type": "way",
  "id": 39083541,
  "bounds": {
    "minlat": 34.0941143,
    "minlon": -84.2365142,
    "maxlat": 34.0955108,
    "maxlon": -84.2349347
  },
  "nodes": [
    466942861,
    466942862,
    466942867,
    2749823583,
    466942868,
    2749823582,
    2749823580,
    2749823578,
    2749823577,
    2749823576,
    2749823574,
    2749823575,
    466942861
  ],
  "geometry": [
    { "lat": 34.0941143, "lon": -84.2357738 },
    { "lat": 34.0945759, "lon": -84.2365142 },
    { "lat": 34.0955108, "lon": -84.2356907 },
    { "lat": 34.0954376, "lon": -84.2355723 },
    { "lat": 34.0950434, "lon": -84.2349347 },
    { "lat": 34.0949376, "lon": -84.2350302 },
    { "lat": 34.0947872, "lon": -84.2351660 },
    { "lat": 34.0946706, "lon": -84.2350224 },
    { "lat": 34.0945984, "lon": -84.2350747 },
    { "lat": 34.0944398, "lon": -84.2353316 },
    { "lat": 34.0943533, "lon": -84.2354056 },
    { "lat": 34.0944177, "lon": -84.2354998 },
    { "lat": 34.0941143, "lon": -84.2357738 }
  ],
  "tags": {
    "addr:city": "Alpharetta",
    "addr:housenumber": "1650",
    "addr:postcode": "30005",
    "addr:state": "GA",
    "addr:street": "Union Hill Road",
    "building": "yes",
    "building:levels": "2",
    "name": "Strategic Datasphere",
    "telecom": "data_center",
    "wheelchair": "yes"
  }
},
{
  "type": "way",
  "id": 39083797,
  "bounds": {
    "minlat": 34.0866593,
    "minlon": -84.2526201,
    "maxlat": 34.0873135,
    "maxlon": -84.2510167
  },
  "nodes": [
    466956386,
    466956387,
    466956388,
    466956389,
    466956390,
    466956391,
    10794195841,
    10794195842,
    466956396,
    10794195843,
    10794195844,
    10794195845,
    10794195846,
    10794195847,
    10794195848,
    466956397,
    466956386
  ],
  "geometry": [
    { "lat": 34.0872126, "lon": -84.2526201 },
    { "lat": 34.0872261, "lon": -84.2524198 },
    { "lat": 34.0872672, "lon": -84.2524238 },
    { "lat": 34.0872820, "lon": -84.2522045 },
    { "lat": 34.0872404, "lon": -84.2522004 },
    { "lat": 34.0872669, "lon": -84.2518090 },
    { "lat": 34.0872804, "lon": -84.2518103 },
    { "lat": 34.0873135, "lon": -84.2513198 },
    { "lat": 34.0870611, "lon": -84.2512950 },
    { "lat": 34.0870776, "lon": -84.2510516 },
    { "lat": 34.0867233, "lon": -84.2510167 },
    { "lat": 34.0866593, "lon": -84.2519642 },
    { "lat": 34.0869220, "lon": -84.2519900 },
    { "lat": 34.0869163, "lon": -84.2520742 },
    { "lat": 34.0869766, "lon": -84.2520802 },
    { "lat": 34.0869419, "lon": -84.2525933 },
    { "lat": 34.0872126, "lon": -84.2526201 }
  ],
  "tags": {
    "addr:city": "Alpharetta",
    "addr:housenumber": "12655",
    "addr:postcode": "30022",
    "addr:state": "GA",
    "addr:street": "Edison Drive",
    "building": "industrial",
    "name": "Flexential Atlanta - Alpharetta Data Center",
    "operator": "Flexential",
    "operator:wikidata": "Q115417504",
    "telecom": "data_center",
    "website": "https://www.flexential.com/data-centers/ga/atlanta/alpharetta-data-center"
  }
},
{
  "type": "way",
  "id": 39083830,
  "bounds": {
    "minlat": 34.0929067,
    "minlon": -84.2520324,
    "maxlat": 34.0945060,
    "maxlon": -84.2497236
  },
  "nodes": [
    466958130,
    466958131,
    466958132,
    466958133,
    466958130
  ],
  "geometry": [
    { "lat": 34.0938450, "lon": -84.2520324 },
    { "lat": 34.0945060, "lon": -84.2515260 },
    { "lat": 34.0935749, "lon": -84.2497236 },
    { "lat": 34.0929067, "lon": -84.2502214 },
    { "lat": 34.0938450, "lon": -84.2520324 }
  ],
  "tags": {
    "building": "yes",
    "name": "Secure Data Center",
    "telecom": "data_center"
  }
},
{
  "type": "way",
  "id": 40608200,
  "bounds": {
    "minlat": 37.3647420,
    "minlon": -121.9624416,
    "maxlat": 37.3660616,
    "maxlon": -121.9609037
  },
  "nodes": [
    493159621,
    493159614,
    493159616,
    493159620,
    493159618,
    493159619,
    493159621
  ],
  "geometry": [
    { "lat": 37.3647420, "lon": -121.9617164 },
    { "lat": 37.3650516, "lon": -121.9624416 },
    { "lat": 37.3656317, "lon": -121.9620495 },
    { "lat": 37.3654394, "lon": -121.9615992 },
    { "lat": 37.3660616, "lon": -121.9611786 },
    { "lat": 37.3659443, "lon": -121.9609037 },
    { "lat": 37.3647420, "lon": -121.9617164 }
  ],
  "tags": {
    "addr:housenumber": "2050",
    "addr:street": "Martin Avenue",
    "building": "yes",
    "name": "Cologix Santa Clara SV1 Data Center",
    "operator": "Cologix",
    "ref": "SV1",
    "telecom": "data_center"
  }
},
{
  "type": "way",
  "id": 42000820,
  "bounds": {
    "minlat": 44.6678400,
    "minlon": -74.9809309,
    "maxlat": 44.6683729,
    "maxlon": -74.9802330
  },
  "nodes": [
    520836847,
    520836850,
    520836829,
    520836832,
    520836852,
    520836923,
    520836878,
    520836809,
    520836835,
    520836837,
    520836812,
    520836814,
    520836839,
    520836841,
    520836817,
    520836819,
    520836847
  ],
  "geometry": [
    { "lat": 44.6683674, "lon": -74.9809309 },
    { "lat": 44.6683703, "lon": -74.9807545 },
    { "lat": 44.6682145, "lon": -74.9807495 },
    { "lat": 44.6682192, "lon": -74.9804610 },
    { "lat": 44.6683712, "lon": -74.9804438 },
    { "lat": 44.6683729, "lon": -74.9802501 },
    { "lat": 44.6678432, "lon": -74.9802330 },
    { "lat": 44.6678400, "lon": -74.9804282 },
    { "lat": 44.6680126, "lon": -74.9804338 },
    { "lat": 44.6680108, "lon": -74.9805413 },
    { "lat": 44.6679530, "lon": -74.9805395 },
    { "lat": 44.6679513, "lon": -74.9806466 },
    { "lat": 44.6680247, "lon": -74.9806490 },
    { "lat": 44.6680228, "lon": -74.9807615 },
    { "lat": 44.6678659, "lon": -74.9807564 },
    { "lat": 44.6678633, "lon": -74.9809146 },
    { "lat": 44.6683674, "lon": -74.9809309 }
  ],
  "tags": {
    "addr:state": "NY",
    "amenity": "university",
    "building": "yes",
    "building:use": "data_center",
    "education": "university",
    "ele": "131",
    "gnis:feature_id": "2400697",
    "name": "Old Main",
    "operator": "Clarkson University",
    "source": "USGS Geonames",
    "source:ref": "https://colo.clarkson.edu/",
    "telecom": "data_center"
  }
},
{
  "type": "way",
  "id": 42323063,
  "bounds": {
    "minlat": 38.6289185,
    "minlon": -90.1974466,
    "maxlat": 38.6296048,
    "maxlon": -90.1969031
  },
  "nodes": [
    528205864,
    12478792353,
    528205867,
    528205871,
    12478792356,
    528205872,
    528205864
  ],
  "geometry": [
    { "lat": 38.6289873, "lon": -90.1974466 },
    { "lat": 38.6292988, "lon": -90.1973421 },
    { "lat": 38.6296048, "lon": -90.1972395 },
    { "lat": 38.6295355, "lon": -90.1969031 },
    { "lat": 38.6292623, "lon": -90.1969946 },
    { "lat": 38.6289185, "lon": -90.1971105 },
    { "lat": 38.6289873, "lon": -90.1974466 }
  ],
  "tags": {
    "addr:city": "Saint Louis",
    "addr:housenumber": "210",
    "addr:postcode": "63101",
    "addr:state": "MO",
    "addr:street": "North Tucker Boulevard",
    "building": "yes",
    "building:levels": "18",
    "height": "68",
    "name": "Netrality Data Centers",
    "old_name": "Digital Realty St. Louis Data Center",
    "telecom": "data_center"
  }
},
{
  "type": "way",
  "id": 45448535,
  "bounds": {
    "minlat": 44.9909744,
    "minlon": -93.2808022,
    "maxlat": 44.9919102,
    "maxlon": -93.2798772
  },
  "nodes": [
    578278759,
    578278764,
    578278768,
    578278771,
    1825000261,
    1825000260,
    578278775,
    578278776,
    578278779,
    578278783,
    578278759
  ],
  "geometry": [
    { "lat": 44.9909744, "lon": -93.2804131 },
    { "lat": 44.9917078, "lon": -93.2808022 },
    { "lat": 44.9919102, "lon": -93.2800392 },
    { "lat": 44.9916393, "lon": -93.2798954 },
    { "lat": 44.9915944, "lon": -93.2800646 },
    { "lat": 44.9915557, "lon": -93.2800441 },
    { "lat": 44.9915622, "lon": -93.2800196 },
    { "lat": 44.9912938, "lon": -93.2798772 },
    { "lat": 44.9912663, "lon": -93.2799809 },
    { "lat": 44.9911109, "lon": -93.2798985 },
    { "lat": 44.9909744, "lon": -93.2804131 }
  ],
  "tags": {
    "addr:city": "Minneapolis",
    "addr:housenumber": "1200",
    "addr:postcode": "55401",
    "addr:state": "MN",
    "addr:street": "North Washington Avenue",
    "building": "yes",
    "operator": "Verizon",
    "operator:wikidata": "Q919641",
    "telecom": "data_center"
  }
},
{
  "type": "way",
  "id": 45583050,
  "bounds": {
    "minlat": 38.8030521,
    "minlon": -77.5111148,
    "maxlat": 38.8038161,
    "maxlon": -77.5100494
  },
  "nodes": [
    581247267,
    581247268,
    581247269,
    581247270,
    581247271,
    581247272,
    581247267
  ],
  "geometry": [
    { "lat": 38.8038161, "lon": -77.5103438 },
    { "lat": 38.8032197, "lon": -77.5100494 },
    { "lat": 38.8030632, "lon": -77.5105712 },
    { "lat": 38.8031268, "lon": -77.5106026 },
    { "lat": 38.8030521, "lon": -77.5108518 },
    { "lat": 38.8035849, "lon": -77.5111148 },
    { "lat": 38.8038161, "lon": -77.5103438 }
  ],
  "tags": {
    "building": "data_center"
  }
},
{
  "type": "way",
  "id": 45776978,
  "bounds": {
    "minlat": 38.7896628,
    "minlon": -77.5414689,
    "maxlat": 38.7913268,
    "maxlon": -77.5407501
  },
  "nodes": [
    582941365,
    582941366,
    582941367,
    582941368,
    582941365
  ],
  "geometry": [
    { "lat": 38.7913268, "lon": -77.5414689 },
    { "lat": 38.7913268, "lon": -77.5407501 },
    { "lat": 38.7896711, "lon": -77.5407608 },
    { "lat": 38.7896628, "lon": -77.5414635 },
    { "lat": 38.7913268, "lon": -77.5414689 }
  ],
  "tags": {
    "addr:city": "Manassas",
    "addr:housenumber": "7510",
    "addr:postcode": "20109",
    "addr:state": "VA",
    "addr:street": "Mason King Court",
    "building": "data_center",
    "name": "Amazon IAD11",
    "operator": "Amazon Web Services",
    "operator:short": "AWS",
    "operator:wikidata": "Q456157",
    "ref": "Amazon IAD11",
    "telecom": "data_center"
  }
},
{
  "type": "way",
  "id": 45776979,
  "bounds": {
    "minlat": 38.7899324,
    "minlon": -77.5402458,
    "maxlat": 38.7907603,
    "maxlon": -77.5397738
  },
  "nodes": [
    582941369,
    582941370,
    582941371,
    582941372,
    582941369
  ],
  "geometry": [
    { "lat": 38.7907394, "lon": -77.5402458 },
    { "lat": 38.7907603, "lon": -77.5398650 },
    { "lat": 38.7899575, "lon": -77.5397738 },
    { "lat": 38.7899324, "lon": -77.5401386 },
    { "lat": 38.7907394, "lon": -77.5402458 }
  ],
  "tags": {
    "addr:city": "Manassas",
    "addr:housenumber": "7610",
    "addr:postcode": "20109",
    "addr:state": "VA",
    "addr:street": "Mason King Court",
    "building": "yes",
    "name": "Amazon IAD24",
    "operator": "Amazon Web Services",
    "operator:short": "AWS",
    "operator:wikidata": "Q456157",
    "ref": "IAD24",
    "telecom": "data_center"
  }
},
{
  "type": "way",
  "id": 45776988,
  "bounds": {
    "minlat": 38.7908857,
    "minlon": -77.5394144,
    "maxlat": 38.7915129,
    "maxlon": -77.5371184
  },
  "nodes": [
    582941404,
    582941405,
    582941406,
    582941407,
    582941404
  ],
  "geometry": [
    { "lat": 38.7913624, "lon": -77.5394144 },
    { "lat": 38.7915129, "lon": -77.5371774 },
    { "lat": 38.7910572, "lon": -77.5371184 },
    { "lat": 38.7908857, "lon": -77.5393661 },
    { "lat": 38.7913624, "lon": -77.5394144 }
  ],
  "tags": {
    "addr:city": "Manassas",
    "addr:housenumber": "7505",
    "addr:postcode": "20109",
    "addr:state": "VA",
    "addr:street": "Mason King Court",
    "building": "data_center",
    "name": "Amazon IAD7",
    "operator": "Amazon Web Services",
    "operator:short": "AWS",
    "operator:wikidata": "Q456157",
    "owner": "Digital Realty",
    "ref": "Amazon IAD-7",
    "telecom": "data_center"
  }
},
{
  "type": "way",
  "id": 46128119,
  "bounds": {
    "minlat": 39.1024023,
    "minlon": -84.5182343,
    "maxlat": 39.1029864,
    "maxlon": -84.5175648
  },
  "nodes": [
    588080700,
    588080705,
    588080709,
    8512010418,
    588080936,
    588080711,
    8511981612,
    6806804939,
    6806804938,
    6806804937,
    8511981610,
    6806804936,
    588080700
  ],
  "geometry": [
    { "lat": 39.1029000, "lon": -84.5182343 },
    { "lat": 39.1024023, "lon": -84.5181114 },
    { "lat": 39.1024836, "lon": -84.5175648 },
    { "lat": 39.1025088, "lon": -84.5175708 },
    { "lat": 39.1026772, "lon": -84.5176107 },
    { "lat": 39.1029037, "lon": -84.5176681 },
    { "lat": 39.1029060, "lon": -84.5176525 },
    { "lat": 39.1029847, "lon": -84.5176724 },
    { "lat": 39.1029699, "lon": -84.5177719 },
    { "lat": 39.1029864, "lon": -84.5177759 },
    { "lat": 39.1029713, "lon": -84.5178774 },
    { "lat": 39.1029538, "lon": -84.5178730 },
    { "lat": 39.1029000, "lon": -84.5182343 }
  ],
  "tags": {
    "addr:city": "Cincinnati",
    "addr:housenumber": "229",
    "addr:postcode": "45202",
    "addr:state": "OH",
    "addr:street": "West 7th Street",
    "alt_name": "7th Street Data Center",
    "building": "yes",
    "building:levels": "14",
    "loc_name": "CyrusOne Building",
    "name": "CyrusOne CIN2",
    "old_name": "Broadwing",
    "opening_hours": "24/7",
    "operator": "CyrusOne",
    "operator:wikidata": "Q16953751",
    "ref": "CIN2",
    "telecom": "data_center",
    "website": "https://www.cyrusone.com/data-centers/north-america/ohio/cin2-cincinnati"
  }
},
{
  "type": "way",
  "id": 46831933,
  "bounds": {
    "minlat": 38.7772448,
    "minlon": -77.5961739,
    "maxlat": 38.7788779,
    "maxlon": -77.5936360
  },
  "nodes": [
    598176618,
    598176619,
    598176620,
    3161201200,
    3161201199,
    598176621,
    598176622,
    598176623,
    598176624,
    598176625,
    598176626,
    598176627,
    598176628,
    598176629,
    598176630,
    598176631,
    598176618
  ],
  "geometry": [
    { "lat": 38.7777541, "lon": -77.5959181 },
    { "lat": 38.7772448, "lon": -77.5942564 },
    { "lat": 38.7784750, "lon": -77.5936360 },
    { "lat": 38.7787518, "lon": -77.5945391 },
    { "lat": 38.7787281, "lon": -77.5945510 },
    { "lat": 38.7788779, "lon": -77.5950401 },
    { "lat": 38.7786303, "lon": -77.5951649 },
    { "lat": 38.7787140, "lon": -77.5954381 },
    { "lat": 38.7786623, "lon": -77.5954641 },
    { "lat": 38.7787052, "lon": -77.5956042 },
    { "lat": 38.7785954, "lon": -77.5956595 },
    { "lat": 38.7786665, "lon": -77.5958915 },
    { "lat": 38.7781062, "lon": -77.5961739 },
    { "lat": 38.7780440, "lon": -77.5959710 },
    { "lat": 38.7779711, "lon": -77.5960078 },
    { "lat": 38.7779182, "lon": -77.5958353 },
    { "lat": 38.7777541, "lon": -77.5959181 }
  ],
  "tags": {
    "addr:city": "Bristow",
    "addr:country": "US",
    "addr:housenumber": "8217",
    "addr:postcode": "20136",
    "addr:state": "VA",
    "addr:street": "Linton Hall Road",
    "building": "data_center",
    "fixme": "might not be digital realty",
    "name": "VA 4",
    "operator": "Digital Realty",
    "operator:wikidata": "Q5275969",
    "operator:wikipedia": "en:Digital Realty",
    "telecom": "data_center"
  }
},
{
  "type": "way",
  "id": 48242814,
  "bounds": {
    "minlat": 39.0211075,
    "minlon": -77.4335760,
    "maxlat": 39.0222431,
    "maxlon": -77.4323696
  },
  "nodes": [
    8929741311,
    8929741252,
    8929741425,
    613091510,
    613091512,
    613091514,
    613091516,
    613091518,
    613091521,
    613091506,
    613091508,
    8929741394,
    8929741311
  ],
  "geometry": [
    { "lat": 39.0222115, "lon": -77.4324165 },
    { "lat": 39.0221987, "lon": -77.4324167 },
    { "lat": 39.0221983, "lon": -77.4323696 },
    { "lat": 39.0211075, "lon": -77.4323832 },
    { "lat": 39.0211138, "lon": -77.4332170 },
    { "lat": 39.0212540, "lon": -77.4332153 },
    { "lat": 39.0212568, "lon": -77.4335760 },
    { "lat": 39.0216682, "lon": -77.4335709 },
    { "lat": 39.0216655, "lon": -77.4332111 },
    { "lat": 39.0222431, "lon": -77.4332040 },
    { "lat": 39.0222370, "lon": -77.4324007 },
    { "lat": 39.0222114, "lon": -77.4324011 },
    { "lat": 39.0222115, "lon": -77.4324165 }
  ],
  "tags": {
    "addr:city": "Sterling",
    "addr:housenumber": "45360",
    "addr:postcode": "20166",
    "addr:state": "VA",
    "addr:street": "W Severn Way",
    "building": "data_center",
    "name": "Amazon IAD10",
    "operator": "Amazon Web Services",
    "operator:short": "AWS",
    "operator:wikidata": "Q456157",
    "ref": "IAD10",
    "telecom": "data_center"
  }
},
{
  "type": "way",
  "id": 48242816,
  "bounds": {
    "minlat": 39.0211570,
    "minlon": -77.4350060,
    "maxlat": 39.0219816,
    "maxlon": -77.4345829
  },
  "nodes": [
    613091529,
    613091536,
    613091523,
    613091525,
    613091529
  ],
  "geometry": [
    { "lat": 39.0211583, "lon": -77.4345829 },
    { "lat": 39.0211570, "lon": -77.4350019 },
    { "lat": 39.0219804, "lon": -77.4350060 },
    { "lat": 39.0219816, "lon": -77.4345870 },
    { "lat": 39.0211583, "lon": -77.4345829 }
  ],
  "tags": {
    "addr:city": "Sterling",
    "addr:housenumber": "1304",
    "addr:postcode": "20166",
    "addr:state": "VA",
    "addr:street": "Squire Court",
    "building": "data_center",
    "name": "Amazon IAD32",
    "operator": "Amazon Web Services",
    "operator:short": "AWS",
    "operator:wikidata": "Q456157",
    "ref": "IAD32",
    "telecom": "data_center"
  }
},
{
  "type": "way",
  "id": 52059176,
  "bounds": {
    "minlat": 45.5492628,
    "minlon": -122.9396952,
    "maxlat": 45.5500978,
    "maxlon": -122.9350791
  },
  "nodes": [
    663561619,
    663561592,
    663561597,
    663561598,
    663561664,
    663561649,
    663561626,
    663561641,
    663561642,
    663561644,
    663561645,
    663561643,
    663561630,
    663561627,
    663561619
  ],
  "geometry": [
    { "lat": 45.5498555, "lon": -122.9396887 },
    { "lat": 45.5492887, "lon": -122.9396952 },
    { "lat": 45.5492684, "lon": -122.9360766 },
    { "lat": 45.5492628, "lon": -122.9350856 },
    { "lat": 45.5498284, "lon": -122.9350791 },
    { "lat": 45.5498340, "lon": -122.9360695 },
    { "lat": 45.5498396, "lon": -122.9370671 },
    { "lat": 45.5500563, "lon": -122.9370646 },
    { "lat": 45.5500581, "lon": -122.9373817 },
    { "lat": 45.5500970, "lon": -122.9373812 },
    { "lat": 45.5500978, "lon": -122.9375374 },
    { "lat": 45.5500592, "lon": -122.9375379 },
    { "lat": 45.5500610, "lon": -122.9378544 },
    { "lat": 45.5498451, "lon": -122.9378568 },
    { "lat": 45.5498555, "lon": -122.9396887 }
  ],
  "tags": {
    "addr:city": "Hillsboro",
    "addr:housenumber": "4050",
    "addr:postcode": "97124",
    "addr:state": "OR",
    "addr:street": "Northeast Evergreen Road",
    "building": "industrial",
    "name": "NTT RagingWire DC - Hillsboro",
    "operator": "NTT",
    "operator:wikidata": "Q1054787",
    "operator:wikipedia": "en:Nippon Telegraph and Telephone",
    "ref": "HI1",
    "telecom": "data_center"
  }
},
{
  "type": "way",
  "id": 52094269,
  "bounds": {
    "minlat": 39.0233789,
    "minlon": -77.4161587,
    "maxlat": 39.0243569,
    "maxlon": -77.4142595
  },