{
  "version": 0.6,
  "generator": "Overpass API 0.7.62.11 87bfad18",
  "osm3s": {
    "timestamp_osm_base": "2026-06-18T23:15:59Z",
    "timestamp_areas_base": "2026-06-18T08:44:00Z",
    "copyright": "The data included in this document is from www.openstreetmap.org. The data is made available under ODbL."
  },
  "elements": [

{
  "type": "node",
  "id": 751881301,
  "lat": 38.9028879,
  "lon": -77.0291491,
  "tags": {
    "addr:housenumber": "1275",
    "addr:street": "K Street Northwest",
    "clli": "WASHDC12",
    "name": "CoreSite DC1",
    "operator": "CoreSite",
    "operator:wikidata": "Q5170140",
    "source": "dcgis",
    "telecom": "data_center",
    "website": "https://www.coresite.com/data-center/dc1-washington-d-c"
  }
},
{
  "type": "node",
  "id": 1825907839,
  "lat": 35.1032925,
  "lon": -106.5893487,
  "tags": {
    "addr:city": "Albuquerque",
    "addr:housename": "Tech Commons Office Complex",
    "addr:housenumber": "5021",
    "addr:postcode": "87110",
    "addr:state": "NM",
    "addr:street": "Indian School Road Northeast",
    "addr:suite": "600",
    "name": "Southwest Cyberport",
    "phone": "+1-505-232-7975",
    "short_name": "SWCP",
    "telecom": "data_center",
    "website": "https://www.swcp.com/",
    "wheelchair": "yes"
  }
},
{
  "type": "node",
  "id": 2607827436,
  "lat": 32.7750252,
  "lon": -117.0708880,
  "tags": {
    "name": "SDSU Computer Room",
    "telecom": "data_center"
  }
},
{
  "type": "node",
  "id": 3406467087,
  "lat": 25.7915453,
  "lon": -80.3177484,
  "tags": {
    "check_date:currency:XBT": "2022-12-23",
    "currency:XBT": "yes",
    "name": "NocRoom Miami IT Services",
    "telecom": "data_center",
    "website": "https://nocroom.com"
  }
},
{
  "type": "node",
  "id": 3406476814,
  "lat": 25.6465617,
  "lon": -80.4234346,
  "tags": {
    "check_date:currency:XBT": "2022-12-23",
    "currency:XBT": "yes",
    "name": "NocRoom Miami IT Services",
    "telecom": "data_center",
    "website": "https://nocroom.com"
  }
},
{
  "type": "node",
  "id": 3468203102,
  "lat": 30.4074460,
  "lon": -91.1725454,
  "tags": {
    "name": "Center for Computation & Technology (CCT)",
    "telecom": "data_center"
  }
},
{
  "type": "node",
  "id": 3732415309,
  "lat": 45.5214248,
  "lon": -122.6805620,
  "tags": {
    "addr:city": "Portland",
    "addr:housenumber": "921",
    "addr:postcode": "97205",
    "addr:state": "OR",
    "addr:street": "Southwest Washington Street",
    "addr:unit": "100",
    "name": "The Pittock Internet Exchange",
    "operator": "Alco Properties",
    "telecom": "data_center",
    "website": "http://www.pittock.com/"
  }
},
{
  "type": "node",
  "id": 4879481820,
  "lat": 33.7715677,
  "lon": -84.3668585,
  "tags": {
    "building": "yes",
    "name": "Google Fiber",
    "operator": "Google",
    "operator:wikidata": "Q95",
    "operator:wikipedia": "en:Google",
    "telecom": "data_center"
  }
},
{
  "type": "node",
  "id": 5146323411,
  "lat": 37.8698521,
  "lon": -122.2598231,
  "tags": {
    "description": "Computer lab providing services to UC Berkeley community",
    "name": "Open Computing Facility",
    "source": "local_knowledge",
    "telecom": "data_center",
    "website": "https://www.ocf.berkeley.edu/",
    "wheelchair": "yes",
    "wikidata": "Q7095985",
    "wikipedia": "en:Open Computing Facility"
  }
},
{
  "type": "node",
  "id": 5225685660,
  "lat": 37.4156880,
  "lon": -79.1427063,
  "tags": {
    "name": "Lumos Networks",
    "telecom": "data_center"
  }
},
{
  "type": "node",
  "id": 6401035673,
  "lat": 35.4672049,
  "lon": -97.6497453,
  "tags": {
    "addr:city": "Oklahoma CIty",
    "addr:housenumber": "7725",
    "addr:postcode": "73127",
    "addr:state": "OK",
    "addr:street": "West Reno Avenue",
    "addr:unit": "385",
    "name": "Rack59 Data Center",
    "telecom": "data_center"
  }
},
{
  "type": "node",
  "id": 6625492701,
  "lat": 35.0925015,
  "lon": -106.6536712,
  "tags": {
    "addr:city": "Albuquerque",
    "addr:housenumber": "725",
    "addr:postcode": "87102",
    "addr:state": "NM",
    "addr:street": "6th Street Northwest",
    "addr:unit": "C",
    "name": "Oso Grande",
    "operator": "Oso Grande",
    "ref": "OSO",
    "telecom": "data_center"
  }
},
{
  "type": "node",
  "id": 6793837329,
  "lat": 39.6309851,
  "lon": -78.2253196,
  "tags": {
    "addr:city": "Bath (Berkeley Springs)",
    "addr:housenumber": "303",
    "addr:postcode": "25411",
    "addr:state": "WV",
    "addr:street": "North Washington Street",
    "addr:unit": "1",
    "name": "Morgan Wireless",
    "phone": "+1-304-592-8330",
    "telecom": "data_center",
    "website": "https://www.morganwireless.net"
  }
},
{
  "type": "node",
  "id": 6856057098,
  "lat": 32.7825463,
  "lon": -96.7828145,
  "tags": {
    "addr:city": "Dallas",
    "addr:housenumber": "2805",
    "addr:postcode": "75226",
    "addr:state": "TX",
    "addr:street": "Canton Street",
    "description": "Web hosting, dedicated servers, VPS and colocation.",
    "name": "VIRTBIZ",
    "phone": "+1-972-485-4125",
    "telecom": "data_center",
    "website": "https://www.virtbiz.com/"
  }
},
{
  "type": "node",
  "id": 7171975407,
  "lat": 43.6578388,
  "lon": -70.2613785,
  "tags": {
    "addr:city": "Portland",
    "addr:housenumber": "340",
    "addr:postcode": "04101",
    "addr:state": "ME",
    "addr:street": "Cumberland Avenue",
    "addr:unit": "7",
    "name": "FirstLight Data Center",
    "operator": "FirstLight",
    "telecom": "data_center",
    "website": "https://www.firstlight.net/products/data-center/portland-me-data-center/"
  }
},
{
  "type": "node",
  "id": 7264976228,
  "lat": 40.4217900,
  "lon": -86.9141546,
  "tags": {
    "name": "Learning GIS!",
    "telecom": "data_center"
  }
},
{
  "type": "node",
  "id": 7264976991,
  "lat": 40.4218543,
  "lon": -86.9165454,
  "tags": {
    "description": "Youthmapper generated Purdue GIS classroom or data labs.",
    "name": "Agricultural and Biological Engineering",
    "telecom": "data_center"
  }
},
{
  "type": "node",
  "id": 7324132050,
  "lat": 35.8813970,
  "lon": -78.8515520,
  "tags": {
    "addr:city": "Durham",
    "addr:housenumber": "5400",
    "addr:postcode": "27703",
    "addr:state": "NC",
    "addr:street": "South Miami Boulevard",
    "addr:unit": "134",
    "name": "Windstream Communications",
    "telecom": "data_center",
    "wikidata": "Q8024771",
    "wikipedia": "en:Windstream Holdings"
  }
},
{
  "type": "node",
  "id": 7324132051,
  "lat": 35.8813640,
  "lon": -78.8515726,
  "tags": {
    "addr:city": "Durham",
    "addr:housenumber": "5400",
    "addr:postcode": "27703",
    "addr:state": "NC",
    "addr:street": "South Miami Boulevard",
    "addr:unit": "135",
    "name": "Level 3 Communications",
    "telecom": "data_center",
    "wikidata": "Q322320",
    "wikipedia": "en:Level 3 Communications"
  }
},
{
  "type": "node",
  "id": 7557854384,
  "lat": 33.3804149,
  "lon": -111.7526684,
  "tags": {
    "addr:city": "Mesa",
    "addr:housenumber": "1955",
    "addr:postcode": "85206",
    "addr:state": "AZ",
    "addr:street": "South Val Vista Drive",
    "name": "OptimumHQ",
    "source": "esri/USA_NAD_Addresses",
    "telecom": "data_center"
  }
},
{
  "type": "node",
  "id": 7557868585,
  "lat": 33.3806010,
  "lon": -111.7528888,
  "tags": {
    "addr:city": "Mesa",
    "addr:housenumber": "1955",
    "addr:postcode": "85206",
    "addr:state": "AZ",
    "addr:street": "South Val Vista Drive",
    "name": "The Chatfield Group",
    "source": "esri/USA_NAD_Addresses",
    "telecom": "data_center"
  }
},
{
  "type": "node",
  "id": 7578821329,
  "lat": 33.3199157,
  "lon": -111.8096860,
  "tags": {
    "addr:city": "Chandler",
    "addr:housenumber": "1909",
    "addr:postcode": "85225",
    "addr:state": "AZ",
    "addr:street": "East Ray Road",
    "name": "All About Serving Process Server",
    "source": "esri/USA_NAD_Addresses",
    "telecom": "data_center"
  }
},
{
  "type": "node",
  "id": 7737996606,
  "lat": 33.3029650,
  "lon": -111.8405386,
  "tags": {
    "name": "Emailage",
    "telecom": "data_center"
  }
},
{
  "type": "node",
  "id": 7821940847,
  "lat": 33.3799862,
  "lon": -111.7284050,
  "tags": {
    "addr:city": "Mesa",
    "addr:housenumber": "4850",
    "addr:postcode": "85206",
    "addr:state": "AZ",
    "addr:street": "East Baseline Road",
    "name": "Alliance Technology",
    "source": "esri/USA_NAD_Addresses",
    "telecom": "data_center"
  }
},
{
  "type": "node",
  "id": 7985753364,
  "lat": 38.9137236,
  "lon": -77.2258825,
  "tags": {
    "addr:housenumber": "8100",
    "addr:street": "Boone Boulevard",
    "name": "8100 Boone Boulevard",
    "operator": "Digital Realty",
    "operator:wikidata": "Q5275969",
    "operator:wikipedia": "en:Digital Realty",
    "owner": "Digital Realty",
    "telecom": "data_center"
  }
},
{
  "type": "node",
  "id": 8017899486,
  "lat": 29.6728187,
  "lon": -82.2997617,
  "tags": {
    "access": "private",
    "check_date": "2023-08-06",
    "description": "The most powerful university supercomputer in the Southern United States",
    "level": "0",
    "manufacturer": "NVIDIA",
    "manufacturer:type": "DGX A10 SuperPOD™",
    "manufacturer:wikidata": "Q182477",
    "name": "HiPerGator",
    "office": "research",
    "operator": "University of Florida",
    "ref": "Version 3.0",
    "research": "computer_science",
    "telecom": "data_center",
    "website": "https://www.rc.ufl.edu/services/hipergator/"
  }
},
{
  "type": "node",
  "id": 8109664813,
  "lat": 33.7555186,
  "lon": -84.3914814,
  "tags": {
    "addr:city": "Atlanta",
    "addr:housenumber": "56",
    "addr:postcode": "30303",
    "addr:state": "GA",
    "addr:street": "Marietta Street",
    "name": "Atlanta ATL13",
    "operator": "Digital Realty",
    "operator:wikidata": "Q5275969",
    "ref": "ATL13",
    "telecom": "data_center",
    "website": "https://www.digitalrealty.com/data-centers/americas/atlanta/atl13"
  }
},
{
  "type": "node",
  "id": 8165754026,
  "lat": 43.0439408,
  "lon": -87.9539794,
  "tags": {
    "addr:city": "Milwaukee",
    "addr:housenumber": "3135",
    "addr:postcode": "53208-3251",
    "addr:state": "WI",
    "addr:street": "West Highland Boulevard",
    "contact:email": "sales@dataholdings.com",
    "contact:facebook": "https://www.facebook.com/Data-Holdings-Data-Center-570409053327886/",
    "contact:phone": "+1 414 837 5502",
    "contact:twitter": "https://twitter.com/dataholdingsmke",
    "contact:website": "https://www.dataholdings.com/",
    "name": "Data Holdings Data Center",
    "office": "company",
    "owner": "Potawatomi Business Development Corporation",
    "short_name": "Data Holdings",
    "telecom": "data_center"
  }
},
{
  "type": "node",
  "id": 8238715059,
  "lat": 37.4027449,
  "lon": -121.8910510,
  "tags": {
    "addr:city": "San Jose",
    "addr:housenumber": "2150",
    "addr:postcode": "95131",
    "addr:state": "CA",
    "addr:street": "Trade Zone Boulevard",
    "addr:unit": "107",
    "fixme": "Somewhere on this floor",
    "level": "0",
    "name": "STACK Infrastructure",
    "operator": "Stack Infrastructure, Incorporated",
    "telecom": "data_center"
  }
},
{
  "type": "node",
  "id": 8238715061,
  "lat": 37.4026341,
  "lon": -121.8910570,
  "tags": {
    "addr:city": "San Jose",
    "addr:housenumber": "2150",
    "addr:postcode": "95131",
    "addr:state": "CA",
    "addr:street": "Trade Zone Boulevard",
    "addr:unit": "201",
    "fixme": "Somewhere on this floor",
    "level": "1",
    "name": "STACK Infrastructure",
    "operator": "Stack Infrastructure, Incorporated",
    "telecom": "data_center"
  }
},
{
  "type": "node",
  "id": 8477460442,
  "lat": 35.2553162,
  "lon": -120.6415128,
  "tags": {
    "name": "Digital West Data Center",
    "telecom": "data_center"
  }
},
{
  "type": "node",
  "id": 8641856300,
  "lat": 42.6279424,
  "lon": -82.9883939,
  "tags": {
    "name": "Chick-fil-A Hiring Center",
    "operator": "Dennis Sampier",
    "telecom": "data_center"
  }
},
{
  "type": "node",
  "id": 8767284091,
  "lat": 41.7070776,
  "lon": -72.5898636,
  "tags": {
    "addr:city": "Glastonbury",
    "addr:housenumber": "65",
    "addr:postcode": "06033",
    "addr:state": "CT",
    "addr:street": "Kreiger Lane",
    "name": "Ergonomic Group",
    "office": "telecommunication",
    "phone": "+1 860 563 4353",
    "telecom": "data_center",
    "website": "https://www.ergogroup.com"
  }
},
{
  "type": "node",
  "id": 8897151054,
  "lat": 37.3341181,
  "lon": -121.8916460,
  "tags": {
    "addr:city": "San Jose",
    "addr:housenumber": "55",
    "addr:postcode": "95113",
    "addr:state": "CA",
    "addr:street": "South Market Street",
    "addr:unit": "104",
    "fixme": "Somewhere in this building",
    "name": "San Jose Colocation Center",
    "official_name": "CoreSite Real Estate 55 S Market Street, L.L.C.",
    "operator": "CoreSite",
    "operator:wikidata": "Q5170140",
    "ref": "SV1",
    "telecom": "data_center",
    "website": "https://www.coresite.com/data-center/sv1-san-jose-ca"
  }
},
{
  "type": "node",
  "id": 9092482804,
  "lat": 39.0254851,
  "lon": -77.4146998,
  "tags": {
    "name": "Amazon Web Services IAD69",
    "operator": "Amazon Web Services",
    "operator:short": "AWS",
    "operator:wikidata": "Q456157",
    "ref": "IAD69",
    "telecom": "data_center"
  }
},
{
  "type": "node",
  "id": 9190480200,
  "lat": 30.1781365,
  "lon": -95.4860464,
  "tags": {
    "addr:city": "The Woodlands",
    "addr:housenumber": "4001",
    "addr:postcode": "77381",
    "addr:state": "TX",
    "addr:street": "Technology Forest Boulevard",
    "name": "Stream Data Centers Houston",
    "telecom": "data_center",
    "website": "https://www.streamdatacenters.com/datacenters/houston-the-woodlands/"
  }
},
{
  "type": "node",
  "id": 9669340912,
  "lat": 39.2877017,
  "lon": -76.6064893,
  "tags": {
    "addr:city": "Baltimore",
    "addr:housenumber": "111",
    "addr:postcode": "21202-4036",
    "addr:state": "MD",
    "addr:street": "Market Place",
    "addr:unit": "Suite 123",
    "name": "Crown Castle Baltimore",
    "operator": "Crown Castle Fiber",
    "phone": "+1 877 486 9377",
    "ref": "Baltimore",
    "telecom": "data_center",
    "website": "https://www.crowncastle.com/communities/baltimore-md.aspx"
  }
},
{
  "type": "node",
  "id": 9669405859,
  "lat": 39.2917583,
  "lon": -76.6203737,
  "tags": {
    "addr:city": "Baltimore",
    "addr:housenumber": "300",
    "addr:postcode": "21201",
    "addr:state": "MD",
    "addr:street": "West Lexington Street",
    "name": "AiNET One Market Center",
    "operator": "AiNET",
    "phone": "+1 301 931 6574",
    "ref": "BW1",
    "telecom": "data_center",
    "website": "https://www.ai.net/"
  }
},
{
  "type": "node",
  "id": 9669639033,
  "lat": 38.9208538,
  "lon": -77.2115713,
  "tags": {
    "addr:city": "McLean",
    "addr:housenumber": "1755",
    "addr:postcode": "22102",
    "addr:state": "VA",
    "addr:street": "Old Meadow Road",
    "name": "Lumen McLean",
    "operator": "Lumen Technologies",
    "operator:wikidata": "Q5063092",
    "telecom": "data_center"
  }
},
{
  "type": "node",
  "id": 9721703993,
  "lat": 43.0093779,
  "lon": -87.9610618,
  "tags": {
    "name": "TierPoint Milwaukee",
    "telecom": "data_center"
  }
},
{
  "type": "node",
  "id": 9736262934,
  "lat": 42.9902011,
  "lon": -78.8123836,
  "tags": {
    "addr:city": "Amherst",
    "addr:housenumber": "4033",
    "addr:postcode": "14226",
    "addr:state": "NY",
    "addr:street": "Maple Road",
    "name": "Frontier Science",
    "phone": "+1-716-834-0900",
    "telecom": "data_center",
    "website": "https://www.frontierscience.org"
  }
},
{
  "type": "node",
  "id": 9808044830,
  "lat": 35.0886289,
  "lon": -106.6526456,
  "tags": {
    "addr:city": "Albuquerque",
    "addr:housenumber": "505",
    "addr:postcode": "87102",
    "addr:state": "NM",
    "addr:street": "Marquette Avenue Northwest",
    "name": "505 Marquette",
    "telecom": "data_center"
  }
},
{
  "type": "node",
  "id": 9808044840,
  "lat": 35.0844494,
  "lon": -106.6489853,
  "tags": {
    "addr:city": "Albuquerque",
    "addr:housenumber": "123",
    "addr:state": "NM",
    "addr:street": "Central Avenue Northwest",
    "name": "123 Central",
    "operator": "bigbyte.cc",
    "telecom": "data_center"
  }
},
{
  "type": "node",
  "id": 9861806598,
  "lat": 39.1011816,
  "lon": -94.5788209,
  "tags": {
    "telecom": "data_center"
  }
},
{
  "type": "node",
  "id": 9922928085,
  "lat": 39.1009071,
  "lon": -94.5811452,
  "tags": {
    "addr:city": "Kansas City",
    "addr:housenumber": "1102",
    "addr:postcode": "64106",
    "addr:state": "MO",
    "addr:street": "Grand Boulevard",
    "name": "Netrality Data Centers",
    "telecom": "data_center",
    "website": "https://netrality.com/locations/data-center-kansas-city/"
  }
},
{
  "type": "node",
  "id": 10014176940,
  "lat": 18.4174359,
  "lon": -66.1089895,
  "tags": {
    "addr:city": "Guaynabo",
    "addr:housenumber": "48",
    "addr:postcode": "00968",
    "addr:state": "PR",
    "addr:street": "Avenida El Caño",
    "name": "Microsoft",
    "operator": "Microsoft",
    "operator:wikidata": "Q2283",
    "phone": "+1 787-273-3600",
    "telecom": "data_center",
    "website": "www,microsoft.com/es-pr"
  }
},
{
  "type": "node",
  "id": 10537283366,
  "lat": 41.8728811,
  "lon": -87.6334400,
  "tags": {
    "addr:city": "Chicago",
    "addr:housenumber": "717",
    "addr:postcode": "60607",
    "addr:state": "IL",
    "addr:street": "South Wells Street",
    "name": "Netrality",
    "operator": "Netrality",
    "telecom": "data_center"
  }
},
{
  "type": "node",
  "id": 10567817971,
  "lat": 36.0030993,
  "lon": -78.9385323,
  "tags": {
    "description": "The Brandaleone Lab for Data and Visualization Services (https://library.duke.edu/data/about/lab) provides research computing for projects involving data analytics, data visualization, digital mapping and statistics. Computers in the lab are available for",
    "name": "Brandaleone Lab for Data and Visualization",
    "operator": "Duke Libraries",
    "telecom": "data_center"
  }
},
{
  "type": "node",
  "id": 10648552506,
  "lat": 35.9295133,
  "lon": -84.3105670,
  "tags": {
    "name": "Frontier (supercomputer)",
    "operator": "Oak Ridge National Laboratory",
    "telecom": "data_center"
  }
},
{
  "type": "node",
  "id": 10780794741,
  "lat": 37.7796531,
  "lon": -122.3940005,
  "tags": {
    "addr:housenumber": "630",
    "addr:state": "CA",
    "addr:street": "3rd Street",
    "operator": "Ntirety",
    "telecom": "data_center"
  }
},
{
  "type": "node",
  "id": 10796113031,
  "lat": 33.6273670,
  "lon": -111.9017033,
  "tags": {
    "name": "VaultLogix",
    "telecom": "data_center"
  }
},
{
  "type": "node",
  "id": 10796113033,
  "lat": 33.6272477,
  "lon": -111.9020476,
  "tags": {
    "name": "Profit Finder Pro Software",
    "telecom": "data_center"
  }
},
{
  "type": "node",
  "id": 10798644674,
  "lat": 33.6116624,
  "lon": -111.9139825,
  "tags": {
    "name": "DataPro USA Web Development",
    "telecom": "data_center"
  }
},
{
  "type": "node",
  "id": 10880725408,
  "lat": 37.9710809,
  "lon": -122.0437382,
  "tags": {
    "addr:city": "Concord",
    "addr:housenumber": "1855",
    "addr:postcode": "94520",
    "addr:state": "CA",
    "addr:street": "Gateway Boulevard",
    "addr:unit": "Suite 730",
    "description": "e360 is a platform that delivers solutions to environmental challenges, promoting sustainable practices and a greener future for businesses and individuals worldwide.",
    "name": "e360",
    "phone": "+1-877-368-4797",
    "telecom": "data_center",
    "website": "https://www.e360.com/"
  }
},
{
  "type": "node",
  "id": 10910879064,
  "lat": 41.8533507,
  "lon": -87.6183067,
  "tags": {
    "addr:city": "Chicago",
    "addr:housenumber": "350",
    "addr:postcode": "60616",
    "addr:state": "IL",
    "addr:street": "East Cermak Road",
    "name": "Digital Realty ORD10",
    "operator": "Digital Realty",
    "operator:wikidata": "Q5275969",
    "ref": "ORD10",
    "telecom": "data_center"
  }
},
{
  "type": "node",
  "id": 10910879065,
  "lat": 41.8533827,
  "lon": -87.6186071,
  "tags": {
    "addr:city": "Chicago",
    "addr:housenumber": "350",
    "addr:postcode": "60616",
    "addr:state": "IL",
    "addr:street": "East Cermak Road",
    "name": "Centersquare Chicago Data Center - ORD1",
    "operator": "Centersquare",
    "operator:wikidata": "Q127304226",
    "ref": "ORD1",
    "telecom": "data_center",
    "website": "https://centersquaredc.com/data-centers/chicago#chicagocermak-ord1"
  }
},
{
  "type": "node",
  "id": 10938672218,
  "lat": 33.6344843,
  "lon": -111.8843457,
  "tags": {
    "name": "K-Motion Interactive",
    "telecom": "data_center"
  }
},
{
  "type": "node",
  "id": 10945121336,
  "lat": 41.8805271,
  "lon": -87.6359383,
  "tags": {
    "name": "West Monroe",
    "telecom": "data_center"
  }
},
{
  "type": "node",
  "id": 11018926315,
  "lat": 33.6446663,
  "lon": -111.8960985,
  "tags": {
    "name": "Iron Mountain Data Centers AZS-1",
    "telecom": "data_center"
  }
},
{
  "type": "node",
  "id": 11098469355,
  "lat": 41.8759405,
  "lon": -87.6314655,
  "tags": {
    "addr:city": "Chicago",
    "addr:housenumber": "427",
    "addr:postcode": "60605",
    "addr:state": "IL",
    "addr:street": "South LaSalle Street",
    "clli": "CHCGILWU",
    "communication": "fiber",
    "name": "CoreSite Chicago Data Center (CH1)",
    "old_ref": "Western Union",
    "operator": "CoreSite",
    "operator:wikidata": "Q5170140",
    "ref": "CH1",
    "telecom": "data_center",
    "telecom:medium": "fibre",
    "website": "https://www.coresite.com/data-center/ch1-chicago-il"
  }
},
{
  "type": "node",
  "id": 11113161710,
  "lat": 33.6647455,
  "lon": -112.1117142,
  "tags": {
    "name": "Accelera Data Systems",
    "telecom": "data_center"
  }
},
{
  "type": "node",
  "id": 11167641842,
  "lat": 39.4273178,
  "lon": -76.8115503,
  "tags": {
    "addr:city": "Owings Mills",
    "addr:housenumber": "11155",
    "addr:postcode": "21117",
    "addr:state": "MD",
    "addr:street": "Red Run Boulevard",
    "addr:unit": "200",
    "name": "Expedient Owings Mills",
    "operator": "Expedient",
    "telecom": "data_center",
    "website": "https://www.expedient.com/data-centers/baltimore/"
  }
},
{
  "type": "node",
  "id": 11168593074,
  "lat": 39.2917592,
  "lon": -76.6204024,
  "tags": {
    "name": "Lumen Baltimore",
    "operator": "Lumen Technologies",
    "operator:wikidata": "Q5063092",
    "telecom": "data_center"
  }
},
{
  "type": "node",
  "id": 11168593094,
  "lat": 39.2746554,
  "lon": -76.5916709,
  "tags": {
    "name": "Expedient Tidepoint",
    "operator": "Expedient",
    "telecom": "data_center",
    "website": "https://www.expedient.com/data-centers/baltimore/"
  }
},
{
  "type": "node",
  "id": 11400893880,
  "lat": 39.5938733,
  "lon": -104.8431597,
  "tags": {
    "addr:city": "Centennial",
    "addr:housenumber": "12500",
    "addr:postcode": "80112",
    "addr:state": "CO",
    "addr:street": "East Arapahoe Road",
    "addr:unit": "C",
    "name": "Flexential - Denver - Centennial Data Center",
    "operator": "Flexential",
    "operator:wikidata": "Q115417504",
    "telecom": "data_center",
    "website": "https://www.flexential.com/data-centers/co/denver/centennial-data-center"
  }
},
{
  "type": "node",
  "id": 11666916913,
  "lat": 33.3955855,
  "lon": -111.9700762,
  "tags": {
    "name": "EdgeConneX Data Center",
    "operator": "EdgeConneX",
    "operator:wikidata": "Q115477226",
    "telecom": "data_center"
  }
},
{
  "type": "node",
  "id": 11815482844,
  "lat": 41.8072817,
  "lon": -83.6276287,
  "tags": {
    "telecom": "data_center"
  }
},
{
  "type": "node",
  "id": 11924506303,
  "lat": 33.9102899,
  "lon": -117.5030207,
  "tags": {
    "name": "IT",
    "telecom": "data_center"
  }
},
{
  "type": "node",
  "id": 11938614120,
  "lat": 33.4051307,
  "lon": -111.9773353,
  "tags": {
    "name": "Alembic Computer Services, Inc.",
    "telecom": "data_center"
  }
},
{
  "type": "node",
  "id": 11938631189,
  "lat": 33.4131856,
  "lon": -111.9711539,
  "tags": {
    "name": "J-Curve Technologies",
    "telecom": "data_center"
  }
},
{
  "type": "node",
  "id": 12112201416,
  "lat": 39.3159313,
  "lon": -84.4494638,
  "tags": {
    "addr:city": "West Chester",
    "addr:housenumber": "5307",
    "addr:postcode": "45011",
    "addr:state": "OH",
    "addr:street": "Mulhauser Road",
    "name": "Flexential Cincinnati",
    "operator": "Flexential",
    "operator:wikidata": "Q115417504",
    "telecom": "data_center"
  }
},
{
  "type": "node",
  "id": 12112236372,
  "lat": 39.7459702,
  "lon": -104.9941589,
  "tags": {
    "addr:city": "Denver",
    "addr:full": "1500 Champa Street Suite 100, Denver, CO 80202 United States",
    "addr:housenumber": "1500",
    "addr:postcode": "80202",
    "addr:state": "CO",
    "addr:street": "Champa Street",
    "addr:unit": "100",
    "name": "Flexential Denver - Downtown",
    "operator": "Flexential",
    "operator:wikidata": "Q115417504",
    "telecom": "data_center",
    "website": "https://www.flexential.com/data-centers/co/denver/downtown-data-center"
  }
},
{
  "type": "node",
  "id": 12112238944,
  "lat": 32.8004101,
  "lon": -96.8193707,
  "tags": {
    "addr:city": "Dallas",
    "addr:housenumber": "1950",
    "addr:postcode": "75207",
    "addr:state": "TX",
    "addr:street": "North Stemmons Freeway",
    "addr:suite": "2033",
    "name": "Flexential Dallas - Downtown Dallas",
    "operator": "Flexential",
    "operator:wikidata": "Q115417504",
    "telecom": "data_center",
    "website": "https://www.flexential.com/data-centers/tx/dallas/downtown-data-center"
  }
},
{
  "type": "node",
  "id": 12112266917,
  "lat": 30.2457482,
  "lon": -81.5817226,
  "tags": {
    "addr:city": "Jacksonville",
    "addr:full": "4905 Belfort Road, Suite 145 Jacksonville, FL 32256 United States",
    "addr:housenumber": "4905",
    "addr:postcode": "32256",
    "addr:state": "FL",
    "addr:street": "Belfort Road",
    "addr:unit": "145",
    "name": "Flexential Jacksonville",
    "operator": "Flexential",
    "operator:wikidata": "Q115417504",
    "telecom": "data_center",
    "website": "https://www.flexential.com/data-centers/fl/jacksonville/data-center"
  }
},
{
  "type": "node",
  "id": 12112270180,
  "lat": 39.6610488,
  "lon": -104.8488321,
  "tags": {
    "addr:city": "Aurora",
    "addr:floor": "3",
    "addr:housenumber": "11900",
    "addr:postcode": "80014",
    "addr:state": "CO",
    "addr:street": "East Cornell Avenue",
    "addr:unit": "Building B",
    "name": "Flexential - Denver - Aurora",
    "operator": "Flexential",
    "operator:wikidata": "Q115417504",
    "telecom": "data_center"
  }
},
{
  "type": "node",
  "id": 12112295055,
  "lat": 35.9727294,
  "lon": -86.8084949,
  "tags": {
    "addr:city": "Brentwood",
    "addr:housenumber": "7100",
    "addr:postcode": "37027",
    "addr:state": "TN",
    "addr:street": "Commerce Way",
    "addr:unit": "25",
    "name": "Flexential Nashville - Brentwood",
    "operator": "Flexential",
    "operator:wikidata": "Q115417504",
    "telecom": "data_center",
    "website": "https://www.flexential.com/data-centers/tn/nashville/brentwood-data-center"
  }
},
{
  "type": "node",
  "id": 12112361725,
  "lat": 35.8505281,
  "lon": -78.8291431,
  "tags": {
    "addr:city": "Morrisville",
    "addr:full": "5150 McCrimmon Parkway #423 Morrisville, NC 27560 United States",
    "addr:housenumber": "5150",
    "addr:postcode": "27560",
    "addr:state": "NC",
    "addr:street": "McCrimmon Parkway",
    "addr:unit": "423",
    "name": "Flexential Raleigh",
    "operator": "Flexential",
    "operator:wikidata": "Q115417504",
    "telecom": "data_center",
    "website": "https://www.flexential.com/data-centers/nc/raleigh/data-center"
  }
},
{
  "type": "node",
  "id": 12112380995,
  "lat": 28.0372991,
  "lon": -82.5399781,
  "tags": {
    "addr:city": "Tampa",
    "addr:housenumber": "9417",
    "addr:postcode": "33634",
    "addr:state": "FL",
    "addr:street": "Corporate Lake Drive",
    "name": "Flexential Tampa - West",
    "operator": "Flexential",
    "operator:wikidata": "Q115417504",
    "telecom": "data_center"
  }
},
{
  "type": "node",
  "id": 12112382397,
  "lat": 40.3326480,
  "lon": -111.7278754,
  "tags": {
    "addr:city": "Lindon",
    "addr:housenumber": "333",
    "addr:postcode": "84042",
    "addr:state": "UT",
    "addr:street": "South 520 West",
    "addr:unit": "150",
    "name": "Flexential Salt Lake City - Lindon",
    "operator": "Flexential",
    "operator:wikidata": "Q115417504",
    "telecom": "data_center",
    "website": "https://www.flexential.com/data-centers/ut/salt-lake-city/lindon-data-center"
  }
},
{
  "type": "node",
  "id": 12221811811,
  "lat": 40.7199280,
  "lon": -74.0044583,
  "tags": {
    "addr:city": "New York",
    "addr:housenumber": "32",
    "addr:postcode": "10013",
    "addr:state": "NY",
    "addr:street": "Avenue of the Americas",
    "name": "Digital Realty New York JFK13",
    "operator": "Digital Realty",
    "operator:wikidata": "Q5275969",
    "ref": "JFK13",
    "telecom": "data_center",
    "website": "https://www.digitalrealty.com/data-centers/americas/new-york/jfk13"
  }
},
{
  "type": "node",
  "id": 12221880448,
  "lat": 40.7176766,
  "lon": -74.0084414,
  "tags": {
    "addr:city": "New York",
    "addr:housenumber": "60",
    "addr:postcode": "10013",
    "addr:state": "NY",
    "addr:street": "Hudson Street",
    "name": "Digital Realty New York JFK12",
    "operator": "Digital Realty",
    "operator:wikidata": "Q5275969",
    "ref": "JFK12",
    "telecom": "data_center",
    "website": "https://www.digitalrealty.com/data-centers/americas/new-york/jfk12"
  }
},
{
  "type": "node",
  "id": 12331366645,
  "lat": 33.7559857,
  "lon": -84.3911712,
  "tags": {
    "addr:city": "Atlanta",
    "addr:housenumber": "55",
    "addr:postcode": "30303",
    "addr:state": "GA",
    "addr:street": "Marietta Street",
    "name": "CoreSite AT1",
    "operator": "CoreSite",
    "operator:wikidata": "Q5170140",
    "ref": "AT1",
    "telecom": "data_center",
    "website": "https://www.coresite.com/data-center/at1-atlanta-ga"
  }
},
{
  "type": "node",
  "id": 12387534800,
  "lat": 35.0867385,
  "lon": -106.6153476,
  "tags": {
    "addr:city": "Albuquerque",
    "addr:housenumber": "2701",
    "addr:postcode": "87106",
    "addr:state": "NM",
    "addr:street": "Campus Boulevard Northeast",
    "name": "UNM Data Center",
    "operator": "UNM",
    "ref": "UNM",
    "telecom": "data_center"
  }
},
{
  "type": "node",
  "id": 12437277166,
  "lat": 37.3666621,
  "lon": -121.9628653,
  "tags": {
    "addr:housenumber": "2215",
    "addr:street": "Martin Avenue",
    "name": "Prime Santa Clara",
    "operator": "Prime",
    "telecom": "data_center",
    "website": "https://primedatacenters.com/santa-clara-data-centers/"
  }
},
{
  "type": "node",
  "id": 12452254071,
  "lat": 40.5503501,
  "lon": -74.4568563,
  "tags": {
    "name": "Open Data Centers Piscataway",
    "telecom": "data_center"
  }
},
{
  "type": "node",
  "id": 12471740457,
  "lat": 40.7853948,
  "lon": -74.0750122,
  "tags": {
    "name": "H5 Secaucus",
    "operator": "H5",
    "telecom": "data_center"
  }
},
{
  "type": "node",
  "id": 12550746951,
  "lat": 37.3228675,
  "lon": -121.9474176,
  "tags": {
    "addr:city": "San Jose",
    "addr:housenumber": "300",
    "addr:postcode": "95128",
    "addr:state": "CA",
    "addr:street": "Santana Row",
    "addr:unit": "400",
    "name": "Forescout Technologies, Inc.",
    "phone": "+1-408-213-3191",
    "telecom": "data_center",
    "website": "https://www.forescout.com/"
  }
},
{
  "type": "node",
  "id": 12682482760,
  "lat": 42.7356308,
  "lon": -73.8186650,
  "tags": {
    "addr:city": "Albany",
    "addr:housenumber": "10",
    "addr:postcode": "12205",
    "addr:state": "NY",
    "addr:street": "Airline Drive",
    "name": "Lumen Albany 4",
    "operator": "Lumen Technologies",
    "operator:wikidata": "Q5063092",
    "telecom": "data_center"
  }
},
{
  "type": "node",
  "id": 12695496267,
  "lat": 41.8535578,
  "lon": -87.6180475,
  "tags": {
    "addr:city": "Chicago",
    "addr:housenumber": "350",
    "addr:postcode": "60616",
    "addr:state": "IL",
    "addr:street": "East Cermak Road",
    "name": "Equinix Chicago Data Center - CH1",
    "operator": "Equinix",
    "operator:wikidata": "Q851641",
    "ref": "CH1",
    "telecom": "data_center",
    "website": "https://www.equinix.com/data-centers/americas-colocation/united-states-colocation/chicago-data-centers/ch1"
  }
},
{
  "type": "node",
  "id": 12708029111,
  "lat": 40.3155580,
  "lon": -74.6688514,
  "tags": {
    "addr:city": "Princeton",
    "addr:housenumber": "501",
    "addr:postcode": "08540",
    "addr:state": "NJ",
    "addr:street": "Farber Road",
    "addr:unit": "West",
    "name": "501 West",
    "telecom": "data_center"
  }
},
{
  "type": "node",
  "id": 12766117170,
  "lat": 40.6576957,
  "lon": -74.0048163,
  "tags": {
    "addr:city": "Brooklyn",
    "addr:housenumber": "882",
    "addr:state": "NY",
    "addr:street": "3rd Avenue",
    "name": "Dataverge",
    "operator": "Dataverge",
    "telecom": "data_center"
  }
},
{
  "type": "node",
  "id": 12793428582,
  "lat": 36.0994735,
  "lon": -95.8382826,
  "tags": {
    "name": "TulsaConnect DC3",
    "telecom": "data_center"
  }
},
{
  "type": "node",
  "id": 13019681063,
  "lat": 33.3566787,
  "lon": -111.6352356,
  "tags": {
    "addr:city": "Mesa",
    "addr:housenumber": "3223",
    "addr:postcode": "85212",
    "addr:state": "AZ",
    "addr:street": "South Ellsworth Road",
    "name": "Comarch",
    "telecom": "data_center"
  }
},
{
  "type": "node",
  "id": 13042311881,
  "lat": 34.0584789,
  "lon": -118.2359144,
  "tags": {
    "addr:city": "Los Angeles",
    "addr:housenumber": "900",
    "addr:postcode": "90012",
    "addr:state": "CA",
    "addr:street": "North Alameda Street",
    "check_date": "2025-08-01",
    "name": "CoreSite - LA2",
    "operator": "CoreSite",
    "operator:wikidata": "Q5170140",
    "ref": "LA2",
    "telecom": "data_center",
    "website": "https://www.coresite.com/data-center/la2-los-angeles-ca"
  }
},
{
  "type": "node",
  "id": 13154826378,
  "lat": 39.0160142,
  "lon": -77.4719540,
  "tags": {
    "addr:city": "Ashburn",
    "addr:housenumber": "44371",
    "addr:postcode": "20147",
    "addr:state": "VA",
    "addr:street": "Gigabit Plaza",
    "name": "NTT Ashburn VA7 Data Center",
    "operator": "NTT",
    "operator:wikidata": "Q1054787",
    "ref": "VA7",
    "telecom": "data_center",
    "website": "https://services.global.ntt/en-us/services-and-products/global-data-centers/global-locations/americas/ashburn-va7-data-center"
  }
},
{
  "type": "node",
  "id": 13154826379,
  "lat": 38.7999731,
  "lon": -77.6099636,
  "tags": {
    "addr:city": "Gainesville",
    "addr:housenumber": "7251",
    "addr:postcode": "20155",
    "addr:state": "VA",
    "addr:street": "Grove Hill Boulevard",
    "name": "NTT VA11 Data Center",
    "operator": "NTT",
    "operator:wikidata": "Q1054787",
    "ref": "VA11",
    "telecom": "data_center",
    "website": "https://services.global.ntt/en-us/services-and-products/global-data-centers/global-locations/americas/ashburn-va11-data-center"
  }
},
{
  "type": "node",
  "id": 13226718075,
  "lat": 43.0677161,
  "lon": -89.3922794,
  "tags": {
    "name": "Lumen Madison 1 Data Center",
    "operator": "Lumen Technologies",
    "operator:wikidata": "Q5063092",
    "telecom": "data_center"
  }
},
{
  "type": "node",
  "id": 13311012216,
  "lat": 36.0659290,
  "lon": -115.1385600,
  "tags": {
    "addr:city": "Las Vegas",
    "addr:housenumber": "1110",
    "addr:postcode": "89119",
    "addr:state": "NV",
    "addr:street": "Palms Airport Drive",
    "addr:unit": "110",
    "name": "Fiberhub LAS1",
    "operator": "Fiberhub",
    "phone": "+1 702-487-3838",
    "ref": "LAS1",
    "telecom": "data_center"
  }
},
{
  "type": "node",
  "id": 13409186015,
  "lat": 40.0879189,
  "lon": -75.3397205,
  "tags": {
    "addr:city": "King of Prussia",
    "addr:housenumber": "3400",
    "addr:state": "PA",
    "addr:street": "Horizon Drive",
    "name": "DāStor: 3400 Horizon Drive",
    "telecom": "data_center",
    "website": "https://dastorllc.com/locations/#horizon"
  }
},
{
  "type": "node",
  "id": 13465438761,
  "lat": 32.7784469,
  "lon": -96.7984960,
  "tags": {
    "addr:city": "Dallas",
    "addr:housenumber": "400",
    "addr:postcode": "75202",
    "addr:state": "TX",
    "addr:street": "South Akard Street",
    "addr:unit": "200",
    "name": "Rad Web Hosting",
    "smoking": "no",
    "telecom": "data_center"
  }
},
{
  "type": "node",
  "id": 13546262077,
  "lat": 38.3531768,
  "lon": -81.6961822,
  "tags": {
    "addr:city": "South Charleston",
    "addr:housenumber": "2020",
    "addr:postcode": "25303",
    "addr:state": "WV",
    "addr:street": "Union Carbide Drive",
    "addr:unit": "6000",
    "check_date": "2026-02-12",
    "level": "1",
    "name": "Alpha Federal",
    "operator": "Alpha Innovations",
    "telecom": "data_center",
    "website": "https://myalphainnovations.com/"
  }
},
{
  "type": "node",
  "id": 13603878193,
  "lat": 45.7430786,
  "lon": -108.6030144,
  "tags": {
    "name": "Parsec Data Management",
    "telecom": "data_center"
  }
},
{
  "type": "node",
  "id": 13639231258,
  "lat": 46.9741721,
  "lon": -96.8739403,
  "tags": {
    "addr:city": "Harwood",
    "addr:housenumber": "6805",
    "addr:postcode": "58042",
    "addr:state": "ND",
    "addr:street": "County Rd 81 N",
    "name": "Applied Digital",
    "telecom": "data_center"
  }
},
{
  "type": "node",
  "id": 13685576464,
  "lat": 37.4892338,
  "lon": -77.2474761,
  "tags": {
    "name": "RIC1 DC1",
    "operator": "Quality Technology Services",
    "operator:short": "QTS",
    "operator:wikidata": "Q18392800",
    "telecom": "data_center"
  }
},
{
  "type": "node",
  "id": 13685576465,
  "lat": 37.4886164,
  "lon": -77.2462097,
  "tags": {
    "name": "RIC1 DC2",
    "operator": "Quality Technology Services",
    "operator:short": "QTS",
    "operator:wikidata": "Q18392800",
    "telecom": "data_center"
  }
},
{
  "type": "node",
  "id": 13685576466,
  "lat": 37.4878581,
  "lon": -77.2448256,
  "tags": {
    "name": "RIC1 DC3",
    "operator": "Quality Technology Services",
    "operator:short": "QTS",
    "operator:wikidata": "Q18392800",
    "telecom": "data_center"
  }
},
{
  "type": "node",
  "id": 13720841436,
  "lat": 36.1532940,
  "lon": -95.9891930,
  "tags": {
    "branch": "DC1",
    "name": "TulsaConnect",
    "telecom": "data_center"
  }
},
{
  "type": "node",
  "id": 13720841437,
  "lat": 36.1485011,
  "lon": -95.9905140,
  "tags": {
    "branch": "Tulsa",
    "name": "Windstream",
    "telecom": "data_center"
  }
},
{
  "type": "node",
  "id": 13720841438,
  "lat": 36.1484524,
  "lon": -95.9908198,
  "tags": {
    "branch": "DC5",
    "name": "TulsaConnect",
    "telecom": "data_center"
  }
},
{
  "type": "node",
  "id": 13746843366,
  "lat": 45.5212569,
  "lon": -122.6817537,
  "tags": {
    "addr:city": "Portland",
    "addr:housenumber": "511",
    "addr:postcode": "97205",
    "addr:state": "OR",
    "addr:street": "Southwest 10th Avenue",
    "addr:unit": "#300",
    "name": "Digital Fortress - Portland 1",
    "operator": "Digital Fortress, Inc",
    "telecom": "data_center"
  }
},
{
  "type": "node",
  "id": 13746843367,
  "lat": 45.4762137,
  "lon": -122.7760868,
  "tags": {
    "addr:city": "Beaverton",
    "addr:housenumber": "9705",
    "addr:postcode": "97005",
    "addr:state": "OR",
    "addr:street": "Southwest Sunshine Court",
    "name": "Digital Fortress - Portland 2",
    "operator": "Digital Fortress, Inc",
    "telecom": "data_center"
  }
},
{
  "type": "node",
  "id": 13746843368,
  "lat": 45.4756340,
  "lon": -122.7764098,
  "tags": {
    "addr:city": "Beaverton",
    "addr:housenumber": "9610",
    "addr:postcode": "97005",
    "addr:state": "OR",
    "addr:street": "Southwest Sunshine Court",
    "name": "Digital Fortress - Portland 3",
    "operator": "Digital Fortress, Inc",
    "telecom": "data_center"
  }
},
{
  "type": "node",
  "id": 13748555787,
  "lat": 45.5316902,
  "lon": -122.6837652,
  "tags": {
    "addr:city": "Portland",
    "addr:housenumber": "1233",
    "addr:postcode": "97209",
    "addr:state": "OR",
    "addr:street": "Northwest 12th Avenue",
    "addr:unit": "201",
    "name": "H5 DC - Portland",
    "operator": "H5 Data Centers",
    "operator:wikidata": "Q136332488",
    "telecom": "data_center",
    "website": "https://h5datacenters.com/portland-data-center.html"
  }
},
{
  "type": "node",
  "id": 13748859030,
  "lat": 44.0506071,
  "lon": -123.0929782,
  "tags": {
    "addr:city": "Eugene",
    "addr:housenumber": "800",
    "addr:postcode": "97401",
    "addr:state": "OR",
    "addr:street": "Willamette Street",
    "name": "Date Center West - Eugene",
    "operator": "Data Center West, Inc.",
    "telecom": "data_center"
  }
},
{
  "type": "node",
  "id": 13860564221,
  "lat": 38.9982397,
  "lon": -77.4491455,
  "tags": {
    "addr:city": "Sterling",
    "addr:housenumber": "22280",
    "addr:postcode": "20166",
    "addr:state": "VA",
    "addr:street": "Randolph Drive",
    "name": "QTS Ashburn 2",
    "operator": "Quality Technology Services",
    "operator:short": "QTS",
    "operator:wikidata": "Q18392800",
    "ref": "DC2",
    "telecom": "data_center"
  }
},
{
  "type": "node",
  "id": 13873419223,
  "lat": 36.1532870,
  "lon": -95.9891910,
  "tags": {
    "branch": "321 South Boston",
    "name": "OCOSA",
    "telecom": "data_center"
  }
},
{
  "type": "node",
  "id": 13891340203,
  "lat": 38.9985084,
  "lon": -77.4406368,
  "tags": {
    "addr:city": "Sterling",
    "addr:housenumber": "22321",
    "addr:postcode": "20166",
    "addr:state": "VA",
    "addr:street": "Pacific Boulevard",
    "name": "Vantage VA16",
    "telecom": "data_center"
  }
},
{
  "type": "node",
  "id": 13891340204,
  "lat": 38.9994047,
  "lon": -77.4417901,
  "tags": {
    "addr:city": "Sterling",
    "addr:housenumber": "22321",
    "addr:postcode": "20166",
    "addr:state": "VA",
    "addr:street": "Pacific Boulevard",
    "name": "Vantage VA15",
    "telecom": "data_center"
  }
},
{
  "type": "node",
  "id": 13908533343,
  "lat": 41.1410436,
  "lon": -78.0974055,
  "tags": {
    "addr:city": "Karthaus",
    "addr:housenumber": "3160",
    "addr:state": "PA",
    "addr:street": "Paul Hoddman Road",
    "name": "Iron City No. 1 Power Generator and Compute Center",
    "telecom": "data_center"
  }
},
{
  "type": "way",
  "id": 25706343,
  "center": {
    "lat": 32.8327103,
    "lon": -97.0410284
  },
  "tags": {
    "addr:housenumber": "14950",
    "addr:street": "Kingsport Road",
    "building": "yes",
    "name": "Cyxtera Dallas-Fort Worth Data Center",
    "operator": "Cyxtera",
    "operator:wikidata": "Q111143924",
    "telecom": "data_center"
  }
},
{
  "type": "way",
  "id": 28544618,
  "center": {
    "lat": 32.8009535,
    "lon": -96.8195234
  },
  "tags": {
    "addr:city": "Dallas",
    "addr:country": "US",
    "addr:housenumber": "1950",
    "addr:postcode": "75207",
    "addr:state": "TX",
    "addr:street": "North Stemmons Freeway",
    "building": "yes",
    "name": "Equinix Infomart",
    "operator": "Equinix",
    "operator:wikidata": "Q851641",
    "telecom": "data_center"
  }
},
{
  "type": "way",
  "id": 29827954,
  "center": {
    "lat": 42.3767059,
    "lon": -71.0797577
  },
  "tags": {
    "addr:city": "Somerville",
    "addr:housenumber": "70",
    "addr:postcode": "02143",
    "addr:state": "MA",
    "addr:street": "Inner Belt Road",
    "building": "yes",
    "clli": "SOVLMAAB",
    "name": "CoreSite BO1",
    "office": "it",
    "ref": "BO1",
    "telecom": "data_center"
  }
},
{
  "type": "way",
  "id": 30666790,
  "center": {
    "lat": 34.0581039,
    "lon": -118.2353939
  },
  "tags": {
    "addr:city": "Los Angeles",
    "addr:housenumber": "900",
    "addr:postcode": "90012",
    "addr:state": "CA",
    "addr:street": "Alameda St",
    "addr:street_direction_prefix": "N",
    "amenity": "post_office",
    "building": "commercial",
    "building:levels": "2",
    "clli": "LSANCAVJ",
    "ele": "125.7",
    "gnis:feature_id": "247727",
    "height": "39.2",
    "heritage": "2",
    "heritage:operator": "nrhp",
    "heritage:website": "http://focus.nps.gov/AssetDetail/NRIS/85000131",
    "historic": "building",
    "image": "https://commons.wikimedia.org/wiki/File:U.S._Post_Office_-_Los_Angeles_Terminal_Annex.JPG",
    "lacounty:ain": "5409015016",
    "lacounty:bld_id": "490167843620",
    "name": "USPO Terminal Annex",
    "operator": "United States Postal Service",
    "operator:short": "USPS",
    "operator:type": "public",
    "operator:website": "https://www.usps.com",
    "operator:wikidata": "Q668687",
    "operator:wikipedia": "en:United States Postal Service",
    "ref:nrhp": "85000131",
    "short_name": "USPS",
    "source": "survey;image;usgs_imagery",
    "source_ref": "AM909_DSCR0634",
    "start_date": "1938",
    "telecom": "data_center",
    "wikidata": "Q2466390",
    "wikimedia_commons": "Category:United_States_Post_Office_–_Los_Angeles_Terminal_Annex",
    "wikipedia": "en:U.S. Post Office-Los Angeles Terminal Annex"
  }
},
{
  "type": "way",
  "id": 30827429,
  "center": {
    "lat": 32.7783107,
    "lon": -96.7984357
  },
  "tags": {
    "addr:city": "Dallas",
    "addr:housenumber": "400",
    "addr:postcode": "75202",
    "addr:state": "TX",
    "addr:street": "South Akard Street",
    "building": "commercial",
    "name": "DataBank",
    "smoking": "no",
    "telecom": "data_center"
  }
},
{
  "type": "way",
  "id": 31250931,
  "center": {
    "lat": 39.3038941,
    "lon": -84.3116127
  },
  "tags": {
    "building": "yes",
    "name": "CyrusOne Cincinnati-Mason CIN3",
    "operator": "CyrusOne",
    "operator:wikidata": "Q16953751",
    "ref": "CIN3",
    "telecom": "data_center",
    "website": "https://www.cyrusone.com/data-centers/north-america/ohio/cin3-cincinnati"
  }
},
{
  "type": "way",
  "id": 31800424,
  "center": {
    "lat": 32.8278941,
    "lon": -117.1299275
  },
  "tags": {
    "addr:city": "San Diego",
    "addr:country": "US",
    "addr:housenumber": "9305",
    "addr:postcode": "92123",
    "addr:state": "CA",
    "addr:street": "Lightwave Avenue",
    "building": "industrial",
    "clli": "SNDGCALW",
    "name": "LightEdge SAN1",
    "sangis:OBJECTID": "615",
    "sangis:TYPE": "Industrial",
    "source": "SanGIS Footprints_Nonresidential_SD public domain (http://www.sangis.org/)",
    "telecom": "data_center"
  }
},
{
  "type": "way",
  "id": 31803515,
  "center": {
    "lat": 32.8423554,
    "lon": -117.1694226
  },
  "tags": {
    "addr:city": "San Diego",
    "addr:housenumber": "5761",
    "addr:postcode": "92111",
    "addr:state": "CA",
    "addr:street": "Copley Drive",
    "addr:suite": "150B",
    "building": "yes",
    "building_type": "industrial",
    "name": "EdgeConneX San Diego",
    "operator": "EdgeConneX",
    "operator:wikidata": "Q115477226",
    "sangis:OBJECTID": "61",
    "sangis:TYPE": "Industrial",
    "source": "SanGIS Footprints_Nonresidential_SD public domain (http://www.sangis.org/)",
    "telecom": "data_center",
    "website": "https://www.edgeconnex.com/locations/americas/san-diego-ca/"
  }
},
{
  "type": "way",
  "id": 32560290,
  "center": {
    "lat": 38.6504002,
    "lon": -121.4919461
  },
  "tags": {
    "addr:city": "Sacramento",
    "addr:housenumber": "1312",
    "addr:postcode": "95834",
    "addr:state": "CA",
    "addr:street": "Striker Avenue",
    "building": "yes",
    "clli": "NSCRCA11",
    "name": "RagingWire CA2",
    "operator": "NTT",
    "operator:wikidata": "Q1054787",
    "ref": "CA2",
    "telecom": "data_center"
  }
},
{
  "type": "way",
  "id": 32560292,
  "center": {
    "lat": 38.6504319,
    "lon": -121.4891868
  },
  "tags": {
    "addr:city": "Sacramento",
    "addr:housenumber": "1200",
    "addr:postcode": "95834",
    "addr:state": "CA",
    "addr:street": "Striker Avenue",
    "building": "yes",
    "clli": "NSCRCA11",
    "name": "RagingWire CA1",
    "operator": "NTT",
    "operator:wikidata": "Q1054787",
    "ref": "CA1",
    "telecom": "data_center"
  }
},
{
  "type": "way",
  "id": 34770750,
  "center": {
    "lat": 34.0820578,
    "lon": -84.2672921
  },
  "tags": {
    "landuse": "industrial",
    "name": "Hewlett-Packard",
    "telecom": "data_center"
  }
},
{
  "type": "way",
  "id": 35491576,
  "center": {
    "lat": 37.2415975,
    "lon": -121.7833277
  },
  "tags": {
    "addr:city": "San Jose",
    "addr:housenumber": "11",
    "addr:postcode": "95119",
    "addr:state": "CA",
    "addr:street": "Great Oaks Boulevard",
    "building": "data_center",
    "clli": "SNJSCA",
    "ele": "71.27",
    "height": "8.39",
    "name": "Equinix SV1",
    "operator": "Equinix",
    "operator:wikidata": "Q851641",
    "ref": "SV1",
    "telecom": "data_center",
    "website": "https://www.equinix.co.uk/locations/united-states-colocation/silicon-valley-data-centers/sv1/"
  }
},
{
  "type": "way",
  "id": 36897140,
  "center": {
    "lat": 39.2940482,
    "lon": -84.4121132
  },
  "tags": {
    "building": "yes",
    "building:levels": "2",
    "source": "Yahoo",
    "telecom": "data_center"
  }
},
{
  "type": "way",
  "id": 37877544,
  "center": {
    "lat": 37.3734695,
    "lon": -121.9878002
  },
  "tags": {
    "addr:city": "Sunnyvale",
    "addr:housenumber": "1380",
    "addr:postcode": "94086",
    "addr:state": "CA",
    "addr:street": "Kifer Road",
    "building": "commercial",
    "building:levels": "1",
    "name": "Lumen Sunnyvale 1",
    "operator": "Lumen Technologies",
    "operator:wikidata": "Q5063092",
    "smoking": "no",
    "telecom": "data_center"
  }
},
{
  "type": "way",
  "id": 37947313,
  "center": {
    "lat": 37.3788292,
    "lon": -121.9559257
  },
  "tags": {
    "addr:city": "Santa Clara",
    "addr:housenumber": "3223",
    "addr:postcode": "95054",
    "addr:state": "CA",
    "addr:street": "Kenneth Street",
    "building": "yes",
    "name": "OpenColo",
    "telecom": "data_center",
    "website": "https://www.opencolo.com/"
  }
},
{
  "type": "way",
  "id": 37947314,
  "center": {
    "lat": 37.3784704,
    "lon": -121.9549839
  },
  "tags": {
    "addr:city": "Santa Clara",
    "addr:housenumber": "1350",
    "addr:state": "CA",
    "addr:street": "Duane Avenue",
    "building": "equinix",
    "name": "Equinix Santa Clara SV2",
    "operator": "Equinix",
    "operator:wikidata": "Q851641",
    "ref": "SV2",
    "telecom": "data_center",
    "website": "https://www.equinix.com/data-centers/americas-colocation/united-states-colocation/silicon-valley-data-centers/sv2"
  }
},
{
  "type": "way",
  "id": 37947315,
  "center": {
    "lat": 37.3780374,
    "lon": -121.9541277
  },
  "tags": {
    "addr:housenumber": "3080",
    "addr:street": "Raymond Street",
    "building": "data_center",
    "name": "Layer42 Santa Clara",
    "operator": "Layer42",
    "telecom": "data_center"
  }
},
{
  "type": "way",
  "id": 38305431,
  "center": {
    "lat": 37.3724077,
    "lon": -121.9736470
  },
  "tags": {
    "addr:housenumber": "2820",
    "addr:street": "Northwestern Parkway",
    "building": "data_center",
    "name": "Digital Realty Silicon Valley SJC34",
    "operator": "Digital Realty",
    "operator:wikidata": "Q5275969",
    "telecom": "data_center"
  }
},
{
  "type": "way",
  "id": 38305568,
  "center": {
    "lat": 37.3714713,
    "lon": -121.9696826
  },
  "tags": {
    "addr:city": "Santa Clara",
    "addr:housenumber": "2401",
    "addr:postcode": "95051",
    "addr:state": "CA",
    "addr:street": "Walsh Avenue",
    "building": "data_center",
    "name": "Csquare SFO1",
    "operator": "Csquare",
    "telecom": "data_center",
    "website": "https://www.csquare.com/data-centers/silicon-valley#santaclara-sfo1"
  }
},
{
  "type": "way",
  "id": 38305611,
  "center": {
    "lat": 37.3733075,
    "lon": -121.9727778
  },
  "tags": {
    "building": "data_center",
    "operator": "Vantage",
    "telecom": "data_center"
  }
},
{
  "type": "way",
  "id": 39083541,
  "center": {
    "lat": 34.0948126,
    "lon": -84.2357244
  },
  "tags": {
    "addr:city": "Alpharetta",
    "addr:housenumber": "1650",
    "addr:postcode": "30005",
    "addr:state": "GA",
    "addr:street": "Union Hill Road",
    "building": "yes",
    "building:levels": "2",
    "name": "Strategic Datasphere",
    "telecom": "data_center",
    "wheelchair": "yes"
  }
},
{
  "type": "way",
  "id": 39083797,
  "center": {
    "lat": 34.0869864,
    "lon": -84.2518184
  },
  "tags": {
    "addr:city": "Alpharetta",
    "addr:housenumber": "12655",
    "addr:postcode": "30022",
    "addr:state": "GA",
    "addr:street": "Edison Drive",
    "building": "industrial",
    "name": "Flexential Atlanta - Alpharetta Data Center",
    "operator": "Flexential",
    "operator:wikidata": "Q115417504",
    "telecom": "data_center",
    "website": "https://www.flexential.com/data-centers/ga/atlanta/alpharetta-data-center"
  }
},
{
  "type": "way",
  "id": 39083830,
  "center": {
    "lat": 34.0937063,
    "lon": -84.2508780
  },
  "tags": {
    "building": "yes",
    "name": "Secure Data Center",
    "telecom": "data_center"
  }
},
{
  "type": "way",
  "id": 40608200,
  "center": {
    "lat": 37.3654018,
    "lon": -121.9616726
  },
  "tags": {
    "addr:housenumber": "2050",
    "addr:street": "Martin Avenue",
    "building": "yes",
    "name": "Cologix Santa Clara SV1 Data Center",
    "operator": "Cologix",
    "ref": "SV1",
    "telecom": "data_center"
  }
},
{
  "type": "way",
  "id": 42000820,
  "center": {
    "lat": 44.6681065,
    "lon": -74.9805820
  },
  "tags": {
    "addr:state": "NY",
    "amenity": "university",
    "building": "yes",
    "building:use": "data_center",
    "education": "university",
    "ele": "131",
    "gnis:feature_id": "2400697",
    "name": "Old Main",
    "operator": "Clarkson University",
    "source": "USGS Geonames",
    "source:ref": "https://colo.clarkson.edu/",
    "telecom": "data_center"
  }
},
{
  "type": "way",
  "id": 42323063,
  "center": {
    "lat": 38.6292617,
    "lon": -90.1971749
  },
  "tags": {
    "addr:city": "Saint Louis",
    "addr:housenumber": "210",
    "addr:postcode": "63101",
    "addr:state": "MO",
    "addr:street": "North Tucker Boulevard",
    "building": "yes",
    "building:levels": "18",
    "height": "68",
    "name": "Netrality Data Centers",
    "old_name": "Digital Realty St. Louis Data Center",
    "telecom": "data_center"
  }
},
{
  "type": "way",
  "id": 45448535,
  "center": {
    "lat": 44.9914423,
    "lon": -93.2803397
  },
  "tags": {
    "addr:city": "Minneapolis",
    "addr:housenumber": "1200",
    "addr:postcode": "55401",
    "addr:state": "MN",
    "addr:street": "North Washington Avenue",
    "building": "yes",
    "name": "Minneapolis Data Center #2",
    "operator": "XO Communications",
    "telecom": "data_center",
    "website": "https://cloudandcolocation.com/datacenters/xo-communications-minneapolis-data-center-2/"
  }
},
{
  "type": "way",
  "id": 45583050,
  "center": {
    "lat": 38.8034341,
    "lon": -77.5105821
  },
  "tags": {
    "building": "data_center"
  }
},
{
  "type": "way",
  "id": 45776978,
  "center": {
    "lat": 38.7904948,
    "lon": -77.5411095
  },
  "tags": {
    "addr:city": "Manassas",
    "addr:housenumber": "7510",
    "addr:postcode": "20109",
    "addr:state": "VA",
    "addr:street": "Mason King Court",
    "building": "data_center",
    "name": "Amazon IAD11",
    "operator": "Amazon Web Services",
    "operator:short": "AWS",
    "operator:wikidata": "Q456157",
    "ref": "Amazon IAD11",
    "telecom": "data_center"
  }
},
{
  "type": "way",
  "id": 45776979,
  "center": {
    "lat": 38.7903463,
    "lon": -77.5400098
  },
  "tags": {
    "addr:city": "Manassas",
    "addr:housenumber": "7610",
    "addr:postcode": "20109",
    "addr:state": "VA",
    "addr:street": "Mason King Court",
    "building": "yes",
    "name": "Amazon IAD24",
    "operator": "Amazon Web Services",
    "operator:short": "AWS",
    "operator:wikidata": "Q456157",
    "ref": "IAD24",
    "telecom": "data_center"
  }
},
{
  "type": "way",
  "id": 45776988,
  "center": {
    "lat": 38.7911993,
    "lon": -77.5382664
  },
  "tags": {
    "addr:city": "Manassas",
    "addr:housenumber": "7505",
    "addr:postcode": "20109",
    "addr:state": "VA",
    "addr:street": "Mason King Court",
    "building": "data_center",
    "name": "Amazon IAD7",
    "operator": "Amazon Web Services",
    "operator:short": "AWS",
    "operator:wikidata": "Q456157",
    "owner": "Digital Realty",
    "ref": "Amazon IAD-7",
    "telecom": "data_center"
  }
},
{
  "type": "way",
  "id": 46128119,
  "center": {
    "lat": 39.1026943,
    "lon": -84.5178996
  },
  "tags": {
    "addr:city": "Cincinnati",
    "addr:housenumber": "229",
    "addr:postcode": "45202",
    "addr:state": "OH",
    "addr:street": "West 7th Street",
    "alt_name": "7th Street Data Center",
    "building": "yes",
    "building:levels": "14",
    "loc_name": "CyrusOne Building",
    "name": "CyrusOne CIN2",
    "old_name": "Broadwing",
    "opening_hours": "24/7",
    "operator": "CyrusOne",
    "operator:wikidata": "Q16953751",
    "ref": "CIN2",
    "telecom": "data_center",
    "website": "https://www.cyrusone.com/data-centers/north-america/ohio/cin2-cincinnati"
  }
},
{
  "type": "way",
  "id": 46831933,
  "center": {
    "lat": 38.7780614,
    "lon": -77.5949050
  },
  "tags": {
    "addr:city": "Bristow",
    "addr:country": "US",
    "addr:housenumber": "8217",
    "addr:postcode": "20136",
    "addr:state": "VA",
    "addr:street": "Linton Hall Road",
    "building": "data_center",
    "fixme": "might not be digital realty",
    "name": "VA 4",
    "operator": "Digital Realty",
    "operator:wikidata": "Q5275969",
    "operator:wikipedia": "en:Digital Realty",
    "telecom": "data_center"
  }
},
{
  "type": "way",
  "id": 48242814,
  "center": {
    "lat": 39.0216753,
    "lon": -77.4329728
  },
  "tags": {
    "addr:city": "Sterling",
    "addr:housenumber": "45360",
    "addr:postcode": "20166",
    "addr:state": "VA",
    "addr:street": "W Severn Way",
    "building": "data_center",
    "name": "Amazon IAD10",
    "operator": "Amazon Web Services",
    "operator:short": "AWS",
    "operator:wikidata": "Q456157",
    "ref": "IAD10",
    "telecom": "data_center"
  }
},
{
  "type": "way",
  "id": 48242816,
  "center": {
    "lat": 39.0215693,
    "lon": -77.4347944
  },
  "tags": {
    "addr:city": "Sterling",
    "addr:housenumber": "1304",
    "addr:postcode": "20166",
    "addr:state": "VA",
    "addr:street": "Squire Court",
    "building": "data_center",
    "name": "Amazon IAD32",
    "operator": "Amazon Web Services",
    "operator:short": "AWS",
    "operator:wikidata": "Q456157",
    "ref": "IAD32",
    "telecom": "data_center"
  }
},
{
  "type": "way",
  "id": 52059176,
  "center": {
    "lat": 45.5496803,
    "lon": -122.9373872
  },
  "tags": {
    "addr:city": "Hillsboro",
    "addr:housenumber": "4050",
    "addr:postcode": "97124",
    "addr:state": "OR",
    "addr:street": "Northeast Evergreen Road",
    "building": "industrial",
    "name": "NTT RagingWire DC - Hillsboro",
    "operator": "NTT",
    "operator:wikidata": "Q1054787",
    "operator:wikipedia": "en:Nippon Telegraph and Telephone",
    "ref": "HI1",
    "telecom": "data_center"
  }
},
{
  "type": "way",
  "id": 52094269,
  "center": {
    "lat": 39.0238679,
    "lon": -77.4152091
  },
  "tags": {
    "addr:city": "Sterling",
    "addr:housenumber": "45845",
    "addr:postcode": "20166",
    "addr:state": "VA",
    "addr:street": "Nokes Boulevard",
    "building": "data_center",
    "name": "Centersquare IAD1-B",
    "operator": "Centersquare",
    "operator:wikidata": "Q127304226",
    "ref": "IAD1-B",
    "source_ref": "https://centersquaredc.com/hubfs/CenterSquare/docs/Centersquare-IAD-SpecSheet.pdf",
    "telecom": "data_center"
  }
},
{
  "type": "way",
  "id": 52094270,
  "center": {
    "lat": 39.0232978,
    "lon": -77.4132123
  },
  "tags": {
    "addr:city": "Sterling",
    "addr:housenumber": "45901",
    "addr:postcode": "20166",
    "addr:state": "VA",
    "addr:street": "Nokes Boulevard",
    "building": "data_center",
    "name": "Centersquare IAD1-A",
    "operator": "Centersquare",
    "operator:wikidata": "Q127304226",
    "ref": "IAD1-A",
    "source_ref": "https://centersquaredc.com/hubfs/CenterSquare/docs/Centersquare-IAD-SpecSheet.pdf",
    "telecom": "data_center"
  }
},
{
  "type": "way",
  "id": 52094294,
  "center": {
    "lat": 39.0247540,
    "lon": -77.4122043
  },
  "tags": {
    "addr:city": "Sterling",
    "addr:housenumber": "21110",
    "addr:postcode": "20166",
    "addr:state": "VA",
    "addr:street": "Ridgetop Circle",
    "building": "data_center",
    "name": "Centersquare IAD1-C",
    "operator": "Centersquare",
    "operator:wikidata": "Q127304226",
    "ref": "IAD1-C",
    "source_ref": "https://centersquaredc.com/hubfs/CenterSquare/docs/Centersquare-IAD-SpecSheet.pdf",
    "telecom": "data_center"
  }
},
{
  "type": "way",
  "id": 52227492,
  "center": {
    "lat": 44.8516116,
    "lon": -93.5988964
  },
  "tags": {
    "addr:city": "Chaska",
    "addr:housenumber": "3500",
    "addr:postcode": "55318",
    "addr:state": "MN",
    "addr:street": "Lyman Boulevard",
    "building": "yes",
    "name": "Flexential Minneapolis - Chaska",
    "operator": "Flexential",
    "operator:wikidata": "Q115417504",
    "telecom": "data_center",
    "website": "https://www.flexential.com/data-centers/mn/minneapolis/chaska-data-center"
  }
},
{
  "type": "way",
  "id": 52958203,
  "center": {
    "lat": 39.7452303,
    "lon": -104.9793322
  },
  "tags": {
    "addr:city": "Denver",
    "addr:housenumber": "601",
    "addr:postcode": "80203",
    "addr:state": "CO",
    "addr:street": "East 18th Avenue",
    "building": "commercial",
    "building:colour": "#f5deb3",
    "building:levels": "3",
    "clli": "DNVTCO56",
    "name": "Pearl Plaza Office Building",
    "roof:colour": "#f5deb3",
    "telecom": "data_center"
  }
},
{
  "type": "way",
  "id": 54119665,
  "center": {
    "lat": 37.3975720,
    "lon": -121.9809630
  },
  "tags": {
    "addr:city": "Santa Clara",
    "addr:housenumber": "4650",
    "addr:postcode": "95054",
    "addr:state": "CA",
    "addr:street": "Old Ironsides Drive",
    "building": "yes",
    "name": "Csquare SFO2",
    "operator": "Csquare",
    "ref": "SFO2",
    "telecom": "data_center"
  }
},
{
  "type": "way",
  "id": 54119667,
  "center": {
    "lat": 37.3986381,
    "lon": -121.9811563
  },
  "tags": {
    "addr:city": "Santa Clara",
    "addr:housenumber": "4700",
    "addr:postcode": "95054",
    "addr:state": "CA",
    "addr:street": "Old Ironsides Drive",
    "building": "yes",
    "name": "Csquare SFO2",
    "operator": "Csquare",
    "ref": "SFO2",
    "telecom": "data_center"
  }
},
{
  "type": "way",
  "id": 54121151,
  "center": {
    "lat": 37.3939862,
    "lon": -121.9783207
  },
  "tags": {
    "addr:city": "Santa Clara",
    "addr:housenumber": "2805",
    "addr:postcode": "95054",
    "addr:state": "CA",
    "addr:street": "Mission College Boulevard",
    "building": "yes",
    "name": "QTS Santa Clara 1",
    "operator": "Quality Technology Services",
    "operator:short": "QTS",
    "operator:wikidata": "Q18392800",
    "telecom": "data_center",
    "website": "https://qtsdatacenters.com/data-centers/santa-clara/"
  }
},
{
  "type": "way",
  "id": 54173383,
  "center": {
    "lat": 37.3751575,
    "lon": -121.9717141
  },
  "tags": {
    "addr:city": "Santa Clara",
    "addr:housenumber": "2901",
    "addr:postcode": "95054",
    "addr:state": "CA",
    "addr:street": "Coronado Drive",
    "building": "commercial",
    "name": "CoreSite SV3",
    "operator": "CoreSite",
    "ref": "SV3",
    "telecom": "data_center"
  }
},
{
  "type": "way",
  "id": 54173753,
  "center": {
    "lat": 37.3763019,
    "lon": -121.9720837
  },
  "tags": {
    "building": "yes",
    "name": "CoreSite SV6",
    "operator": "CoreSite",
    "ref": "SV6",
    "telecom": "data_center"
  }
},
{
  "type": "way",
  "id": 54173755,
  "center": {
    "lat": 37.3773827,
    "lon": -121.9718400
  },
  "tags": {
    "building": "yes",
    "name": "CoreSite SV8",
    "operator": "CoreSite",
    "ref": "SV8",
    "telecom": "data_center"
  }
},
{
  "type": "way",
  "id": 54383196,
  "center": {
    "lat": 37.3751959,
    "lon": -121.9706889
  },
  "tags": {
    "building": "commercial",
    "name": "CoreSite SV5",
    "operator": "CoreSite",
    "ref": "SV5",
    "roof:colour": "gray",
    "roof:shape": "flat",
    "telecom": "data_center"
  }
},
{
  "type": "way",
  "id": 54383197,
  "center": {
    "lat": 37.3755551,
    "lon": -121.9696049
  },
  "tags": {
    "building": "commercial",
    "name": "CoreSite SV9",
    "operator": "CoreSite",
    "ref": "SV9",
    "telecom": "data_center"
  }
},
{
  "type": "way",
  "id": 58708529,
  "center": {
    "lat": 37.3927307,
    "lon": -121.9784277
  },
  "tags": {
    "addr:housenumber": "2805",
    "addr:postcode": "95054",
    "addr:state": "CA",
    "addr:street": "Mission College Boulevard",
    "building": "yes",
    "name": "QTS Santa Clara 2",
    "operator": "Quality Technology Services",
    "operator:short": "QTS",
    "operator:wikidata": "Q18392800",
    "telecom": "data_center",
    "website": "https://qtsdatacenters.com/data-centers/santa-clara/"
  }
},
{
  "type": "way",
  "id": 59294476,
  "center": {
    "lat": 39.0046933,
    "lon": -77.4417399
  },
  "tags": {
    "building": "data_center",
    "name": "STACK NVA01A - Northern Virginia",
    "operator": "Stack Infrastructure",
    "operator:wikidata": "Q115477173",
    "ref": "NVA01A",
    "telecom": "data_center",
    "website": "https://www.stackinfra.com/locations/northern-virginia/?data_center=nva01a"
  }
},
{
  "type": "way",
  "id": 63619642,
  "center": {
    "lat": 44.9712882,
    "lon": -93.2546974
  },
  "tags": {
    "addr:city": "Minneapolis",
    "addr:housenumber": "511",
    "addr:postcode": "55415",
    "addr:state": "MN",
    "addr:street": "11th Avenue South",
    "building": "yes",
    "name": "Minnesota Gateway Data Center",
    "telecom": "data_center"
  }
},
{
  "type": "way",
  "id": 69827429,
  "center": {
    "lat": 42.6493531,
    "lon": -73.7527453
  },
  "tags": {
    "addr:city": "Albany",
    "addr:housenumber": "80",
    "addr:postcode": "12207",
    "addr:state": "NY",
    "addr:street": "State Street",
    "building": "commercial",
    "building:levels": "12",
    "clli": "ALBYNY80",
    "height": "46",
    "name": "IBM Building",
    "telecom": "data_center"
  }
},
{
  "type": "way",
  "id": 71187940,
  "center": {
    "lat": 42.3262876,
    "lon": -83.0769768
  },
  "tags": {
    "addr:city": "Detroit",
    "addr:housenumber": "2436",
    "addr:postcode": "48216",
    "addr:state": "MI",
    "addr:street": "Bagley Street",
    "building": "yes",
    "operator": "Verizon Wireless",
    "ref": "DTRT.PP2",
    "source": "Yahoo",
    "telecom": "data_center"
  }
},
{
  "type": "way",
  "id": 79056848,
  "center": {
    "lat": 43.1436204,
    "lon": -70.9524471
  },
  "tags": {
    "addr:country": "US",
    "addr:housenumber": "1",
    "addr:postcode": "03824",
    "addr:state": "NH",
    "addr:street": "Leavitt Lane",
    "building": "commercial",
    "operator": "University of New Hampshire",
    "telecom": "data_center"
  }
},
{
  "type": "way",
  "id": 79158387,
  "center": {
    "lat": 38.9484941,
    "lon": -77.3273071
  },
  "tags": {
    "addr:city": "Reston",
    "addr:housenumber": "1780",
    "addr:postcode": "20190",
    "addr:state": "VA",
    "addr:street": "Business Center Drive",
    "building": "data_center",
    "building:levels": "5",
    "name": "VA3",
    "operator": "Digital Realty",
    "operator:wikidata": "Q5275969",
    "ref": "VA3",
    "telecom": "data_center"
  }
},
{
  "type": "way",
  "id": 79159494,
  "center": {
    "lat": 38.9488119,
    "lon": -77.3294144
  },
  "tags": {
    "addr:city": "Reston",
    "addr:housenumber": "1807",
    "addr:postcode": "20190",
    "addr:state": "VA",
    "addr:street": "Michael Faraday Court",
    "building": "yes",
    "name": "IAD1",
    "operator": "Evocative",
    "operator:wikidata": "Q136332656",
    "ref": "IAD1",
    "telecom": "data_center",
    "website": "https://evocative.com/data-centers/reston-va-data-center-iad1/"
  }
},
{
  "type": "way",
  "id": 79298926,
  "center": {
    "lat": 38.9506059,
    "lon": -77.3645496
  },
  "tags": {
    "VEDP:PropertyID": "241830",
    "addr:city": "Reston",
    "addr:country": "US",
    "addr:housenumber": "12100",
    "addr:postcode": "20191-3407",
    "addr:state": "VA",
    "addr:street": "Sunrise Valley Drive",
    "building": "office",
    "clli": "RSTNVA14",
    "name": "CoreSite Reston Campus VA1",
    "operator": "CoreSite",
    "operator:wikidata": "Q5170140",
    "telecom": "data_center"
  }
},
{
  "type": "way",
  "id": 79818498,
  "center": {
    "lat": 38.9483343,
    "lon": -77.3724298
  },
  "tags": {
    "addr:city": "Reston",
    "addr:housenumber": "12369",
    "addr:postcode": "20191",
    "addr:street": "Sunrise Valley Drive",
    "building": "yes",
    "name": "CoreSite Reston VA3",
    "operator": "CoreSite",
    "telecom": "data_center",
    "website": "https://www.coresite.com/data-center/va3-reston-va"
  }
},
{
  "type": "way",
  "id": 87058670,
  "center": {
    "lat": 43.0761287,
    "lon": -70.8080395
  },
  "tags": {
    "addr:city": "Portsmouth",
    "addr:country": "US",
    "addr:housenumber": "77",
    "addr:state": "NH",
    "addr:street": "Aviation Avenue",
    "building": "yes",
    "operator": "FirstLight",
    "telecom": "data_center"
  }
},
{
  "type": "way",
  "id": 89784186,
  "center": {
    "lat": 39.7455720,
    "lon": -104.9956909
  },
  "tags": {
    "addr:city": "Denver",
    "addr:housenumber": "910",
    "addr:postcode": "80202",
    "addr:state": "CO",
    "addr:street": "15th Street",
    "building": "commercial",
    "building:colour": "#DEB887",
    "building:levels": "8",
    "clli": "DNVRCO26",
    "height": "35",
    "name": "Insurance Exchange Building",
    "roof:colour": "#696969",
    "telecom": "data_center",
    "wikidata": "Q101251270",
    "wikipedia": "en:Denver Gas & Electric Building"
  }
},
{
  "type": "way",
  "id": 93210344,
  "center": {
    "lat": 39.0586081,
    "lon": -76.9644670
  },
  "tags": {
    "addr:city": "Silver Spring",
    "addr:housenumber": "12401",
    "addr:postcode": "20904",
    "addr:state": "MD",
    "addr:street": "Prosperity Drive",
    "building": "yes",
    "name": "Lincoln Rackhouse Maryland",
    "operator": "Lincoln Rackhouse",
    "telecom": "data_center",
    "website": "https://rackhouse.com/portfolio/maryland-data-center/"
  }
},
{
  "type": "way",
  "id": 95349317,
  "center": {
    "lat": 39.3889702,
    "lon": -84.2218527
  },
  "tags": {
    "building": "yes",
    "name": "CyrusOne Cincinnati-Lebanon",
    "telecom": "data_center"
  }
},
{
  "type": "way",
  "id": 95782052,
  "center": {
    "lat": 40.7968626,
    "lon": -74.0311403
  },
  "tags": {
    "addr:city": "North Bergen",
    "addr:housenumber": "5851",
    "addr:postcode": "07047",
    "addr:state": "NJ",
    "addr:street": "West Side Avenue",
    "building": "yes",
    "name": "Equinix NY7 Data Center",
    "operator": "Equinix",
    "operator:wikidata": "Q851641",
    "ref": "NY7",
    "telecom": "data_center",
    "website": "https://www.equinix.com/data-centers/americas-colocation/united-states-colocation/new-york-data-centers/ny7"
  }
},
{
  "type": "way",
  "id": 99813512,
  "center": {
    "lat": 37.4145109,
    "lon": -122.0145563
  },
  "tags": {
    "addr:city": "Sunnyvale",
    "addr:housenumber": "255",
    "addr:postcode": "94089",
    "addr:state": "CA",
    "addr:street": "Caspian Drive",
    "building": "data_center",
    "name": "Equinix SV4",
    "operator": "Equinix",
    "operator:wikidata": "Q851641",
    "ref": "SV4",
    "telecom": "data_center",
    "website": "https://www.equinix.com/data-centers/americas-colocation/united-states-colocation/silicon-valley-data-centers/sv4"
  }
},
{
  "type": "way",
  "id": 99861735,
  "center": {
    "lat": 44.8072109,
    "lon": -93.3753850
  },
  "tags": {
    "addr:city": "Bloomington",
    "addr:housenumber": "10801",
    "addr:postcode": "55438",
    "addr:state": "MN",
    "addr:street": "Bush Lake Road",
    "building": "yes",
    "check_date": "2026-04-11",
    "name": "Verizon - Bloomington Network",
    "operator": "Verizon",
    "operator:wikidata": "Q919641",
    "phone": "+1-952-946-4677",
    "telecom": "data_center"
  }
},
{
  "type": "way",
  "id": 102129663,
  "center": {
    "lat": 29.4293706,
    "lon": -98.4869057
  },
  "tags": {
    "addr:city": "San Antonio",
    "addr:housenumber": "100",
    "addr:postcode": "78205",
    "addr:state": "TX",
    "addr:street": "Taylor Street",
    "building": "yes",
    "name": "H5 Data Centers San Antonio",
    "operator": "H5 Data Centers",
    "telecom": "data_center",
    "website": "https://h5datacenters.com/san-antonio-data-center.html"
  }
},
{
  "type": "way",
  "id": 104082694,
  "center": {
    "lat": 41.5879926,
    "lon": -93.6310139
  },
  "tags": {
    "addr:city": "Des Moines",
    "addr:housenumber": "616",
    "addr:state": "IA",
    "addr:street": "10th Street",
    "building": "office",
    "building:levels": "2",
    "name": "Aureon",
    "telecom": "data_center"
  }
},
{
  "type": "way",
  "id": 116005354,
  "center": {
    "lat": 35.5881079,
    "lon": -81.2625753
  },
  "tags": {
    "building": "data_center"
  }
},
{
  "type": "way",
  "id": 118650988,
  "center": {
    "lat": 39.0944683,
    "lon": -94.5794418
  },
  "tags": {
    "addr:city": "Kansas City",
    "addr:housenumber": "1601",
    "addr:state": "MO",
    "addr:street": "McGee Street",
    "building": "yes",
    "building:levels": "8",
    "operator": "Patmos Hosting, Inc.",
    "source": "Bing",
    "telecom": "data_center"
  }
},
{
  "type": "way",
  "id": 122665255,
  "center": {
    "lat": 41.2407307,
    "lon": -73.1472668
  },
  "tags": {
    "addr:city": "Trumbull",
    "addr:housenumber": "80",
    "addr:postcode": "06611",
    "addr:state": "CT",
    "addr:street": "Merritt Boulevard",
    "building": "yes",
    "name": "Digital Realty New York HVN10",
    "note": "for sale, so there could be another tenant",
    "operator": "Digital Realty",
    "operator:wikidata": "Q5275969",
    "ref": "HVN10",
    "telecom": "data_center",
    "website": "https://www.digitalrealty.com/data-centers/americas/new-york/hvn10"
  }
},
{
  "type": "way",
  "id": 124088810,
  "center": {
    "lat": 41.7721034,
    "lon": -88.2170821
  },
  "tags": {
    "building": "yes",
    "name": "Lincoln Rackhouse",
    "telecom": "data_center"
  }
},
{
  "type": "way",
  "id": 128499684,
  "center": {
    "lat": 41.9942413,
    "lon": -87.9619350
  },
  "tags": {
    "addr:city": "Elk Grove Village",
    "addr:housenumber": "2200",
    "addr:postcode": "60007",
    "addr:state": "IL",
    "addr:street": "Busse Road",
    "building": "data_center",
    "building:levels": "3",
    "building:use": "industrial",
    "name": "Digital Realty CH1",
    "operator": "Digital Realty",
    "operator:wikidata": "Q5275969",
    "ref": "CH1",
    "source": "bing",
    "telecom": "data_center",
    "website": "https://www.digitalrealty.com/data-centers/americas/chicago/ch1"
  }
},
{
  "type": "way",
  "id": 131874718,
  "center": {
    "lat": 44.9721950,
    "lon": -93.1474731
  },
  "tags": {
    "addr:city": "Saint Paul",
    "addr:housenumber": "1125",
    "addr:postcode": "55108",
    "addr:state": "MN",
    "addr:street": "Energy Park Drive",
    "building": "yes",
    "name": "H5 Minneapolis",
    "operator": "H5",
    "telecom": "data_center",
    "website": "https://h5datacenters.com/minneapolis-data-center.html"
  }
},
{
  "type": "way",
  "id": 131891022,
  "center": {
    "lat": 33.4203800,
    "lon": -112.0413257
  },
  "tags": {
    "addr:city": "Phoenix",
    "addr:housenumber": "2859",
    "addr:postcode": "85034",
    "addr:state": "AZ",
    "addr:street": "South 18th Place",
    "building": "yes",
    "name": "Iron Mountain Records Storage",
    "operator": "Iron Mountain",
    "operator:wikidata": "Q1673079",
    "telecom": "data_center"
  }
},
{
  "type": "way",
  "id": 132746406,
  "center": {
    "lat": 37.4458951,
    "lon": -122.1607860
  },
  "tags": {
    "addr:city": "Palo Alto",
    "addr:housenumber": "529",
    "addr:postcode": "94301",
    "addr:state": "CA",
    "addr:street": "Bryant Street",
    "alt_name": "Palo Alto Internet Exchange",
    "building": "data_center",
    "name": "Equinix SV8",
    "operator": "Equinix",
    "operator:wikidata": "Q851641",
    "operator:wikipedia": "en:Equinix",
    "ref": "SV8",
    "source": "bing",
    "telecom": "data_center",
    "website": "https://www.equinix.com/data-centers/americas-colocation/united-states-colocation/silicon-valley-data-centers/sv8"
  }
},
{
  "type": "way",
  "id": 138260136,
  "center": {
    "lat": 40.0952591,
    "lon": -88.2420314
  },
  "tags": {
    "addr:city": "Champaign",
    "addr:housenumber": "1725",
    "addr:postcode": "61820",
    "addr:state": "IL",
    "addr:street": "South Oak Street",
    "alt_name": "Blue Waters",
    "building": "data_center",
    "name": "NCSA Petascale Computing Facility",
    "short_name": "NPCF",
    "telecom": "data_center"
  }
},
{
  "type": "way",
  "id": 138643160,
  "center": {
    "lat": 39.9127970,
    "lon": -83.7236638
  },
  "tags": {
    "addr:city": "Springfield",
    "addr:housenumber": "601",
    "addr:postcode": "45502",
    "addr:street": "Benjamin Drive",
    "building": "yes",
    "name": "LexisNexus Springfield",
    "telecom": "data_center",
    "website": "https://www.lexisnexis.com/pdf/Litigation/MTS_Springfield_Data_Center.pdf"
  }
},
{
  "type": "way",
  "id": 149379943,
  "center": {
    "lat": 41.8743036,
    "lon": -87.6299404
  },
  "tags": {
    "addr:city": "Chicago",
    "addr:housenumber": "600",
    "addr:postcode": "60605",
    "addr:state": "IL",
    "addr:street": "South Federal Street",
    "addr:street:name": "Federal",
    "addr:street:prefix": "South",
    "addr:street:type": "Street",
    "building": "commercial",
    "building:levels": "1",
    "chicago:building_id": "824181;851794",
    "name": "Digital Realty ORD11",
    "operator": "Digital Realty",
    "operator:wikidata": "Q5275969",
    "ref": "ORD11",
    "telecom": "data_center"
  }
},
{
  "type": "way",
  "id": 151179323,
  "center": {
    "lat": 33.4943090,
    "lon": -112.0707916
  },
  "tags": {
    "addr:city": "Phoenix",
    "addr:country": "US",
    "addr:housenumber": "215",
    "addr:state": "AZ",
    "addr:street": "East Indian School Road",
    "building": "yes",
    "name": "Lumen",
    "not:brand:wikidata": "Q110391616",
    "operator": "Lumen Technologies",
    "operator:wikidata": "Q5063092",
    "telecom": "data_center"
  }
},
{
  "type": "way",
  "id": 152163711,
  "center": {
    "lat": 33.3053366,
    "lon": -111.6716904
  },
  "tags": {
    "building": "yes",
    "name": "L3Harris Technologies Inc",
    "telecom": "data_center"
  }
},
{
  "type": "way",
  "id": 152163722,
  "center": {
    "lat": 33.3062801,
    "lon": -111.6717217
  },
  "tags": {
    "building": "yes",
    "name": "AZ Labs",
    "telecom": "data_center"
  }
},
{
  "type": "way",
  "id": 152449872,
  "center": {
    "lat": 41.8709439,
    "lon": -87.6401413
  },
  "tags": {
    "addr:city": "Chicago",
    "addr:housenumber": "840",
    "addr:postcode": "60607",
    "addr:state": "IL",
    "addr:street": "South Canal Street",
    "addr:street:name": "Canal",
    "addr:street:prefix": "South",
    "addr:street:type": "Street",
    "building": "office",
    "building:levels": "8",
    "chicago:building_id": "367970",
    "name": "Serverfarm CH1",
    "operator": "Serverfarm",
    "ref": "CH1",
    "telecom": "data_center",
    "website": "https://www.serverfarmllc.com/chicago-data-center/"
  }
},
{
  "type": "way",
  "id": 155739337,
  "center": {
    "lat": 33.6590546,
    "lon": -112.1111595
  },
  "tags": {
    "addr:city": "Phoenix",
    "addr:country": "US",
    "addr:housenumber": "2500",
    "addr:postcode": "85027-5139",
    "addr:state": "AZ",
    "addr:street": "West Union Hills Drive",
    "building": "commercial",
    "building:levels": "1",
    "name": "Aligned Energy Data Center",
    "source": "https://www.datacenters.com/aligned-energy-phoenix-az",
    "start_date": "2017",
    "telecom": "data_center",
    "website": "https://aligneddc.com/phoenix/"
  }
},
{
  "type": "way",
  "id": 156468497,
  "center": {
    "lat": 38.9137020,
    "lon": -77.2258342
  },
  "tags": {
    "addr:housenumber": "8100",
    "addr:street": "Boone Boulevard",
    "building": "data_center",
    "building:levels": "5"
  }
},
{
  "type": "way",
  "id": 156520409,
  "center": {
    "lat": 41.8536916,
    "lon": -87.6182716
  },
  "tags": {
    "addr:city": "Chicago",
    "addr:housenumber": "350",
    "addr:postcode": "60616",
    "addr:state": "IL",
    "addr:street": "East Cermak Road",
    "addr:street:name": "Cermak",
    "addr:street:prefix": "East",
    "addr:street:type": "Road",
    "building": "office",
    "building:levels": "14",
    "chicago:building_id": "838359",
    "clli": "CHCGIL",
    "name": "Lakeside Technology Center",
    "source": "Bing",
    "telecom": "data_center",
    "wikidata": "Q7273403",
    "wikipedia": "en:R.R. Donnelley and Sons Co. Calumet Plant"
  }
},
{
  "type": "way",
  "id": 157362579,
  "center": {
    "lat": 33.6846775,
    "lon": -112.0983398
  },
  "tags": {
    "addr:city": "Phoenix",
    "addr:country": "US",
    "addr:housenumber": "1850",
    "addr:postcode": "85027",
    "addr:state": "AZ",
    "addr:street": "West Deer Valley Road",
    "building": "commercial",
    "building:levels": "2",
    "name": "Flexential Phoenix - Deer Valley",
    "operator": "Flexential",
    "operator:wikidata": "Q115417504",
    "telecom": "data_center",
    "website": "https://www.flexential.com/data-centers/az/phoenix/deer-valley-data-center"
  }
},
{
  "type": "way",
  "id": 159959672,
  "center": {
    "lat": 36.1585898,
    "lon": -95.9886293
  },
  "tags": {
    "addr:city": "Tulsa",
    "addr:country": "US",
    "addr:housenumber": "322",
    "addr:state": "OK",
    "addr:street": "East Archer Street North",
    "branch": "Tulsa - Archer",
    "building": "industrial",
    "name": "TierPoint",
    "ref": "TUL",
    "telecom": "data_center",
    "website": "https://www.tierpoint.com/data-centers/oklahoma/tulsa-archer/"
  }
},
{
  "type": "way",
  "id": 161126131,
  "center": {
    "lat": 37.2420719,
    "lon": -121.7817852
  },
  "tags": {
    "addr:city": "San Jose",
    "addr:housenumber": "9",
    "addr:postcode": "95119",
    "addr:state": "CA",
    "addr:street": "Great Oaks Boulevard",
    "building": "data_center",
    "name": "Equinix SV5",
    "operator": "Equinix",
    "operator:wikidata": "Q851641",
    "ref": "SV5",
    "telecom": "data_center",
    "website": "https://www.equinix.com/data-centers/americas-colocation/united-states-colocation/silicon-valley-data-centers/sv5"
  }
},
{
  "type": "way",
  "id": 166431620,
  "center": {
    "lat": 41.3179864,
    "lon": -96.0503485
  },
  "tags": {
    "addr:city": "Omaha",
    "addr:housenumber": "8949",
    "addr:postcode": "68122",
    "addr:state": "NE",
    "addr:street": "Sorensen Parkway",
    "building": "industrial",
    "name": "Union Pacific Jack Koraleski Technology, Research & Development Center",
    "operator": "Union Pacific Railroad",
    "operator:wikidata": "Q725793",
    "telecom": "data_center"
  }
},
{
  "type": "way",
  "id": 168129695,
  "center": {
    "lat": 40.4513704,
    "lon": -80.1901663
  },
  "tags": {
    "addr:city": "Pittsburgh",
    "addr:housenumber": "35",
    "addr:postcode": "15275",
    "addr:state": "PA",
    "addr:street": "Summit Park Drive",
    "building": "yes",
    "name": "DataBank Pittsburgh PIT2",
    "telecom": "data_center",
    "website": "https://www.databank.com/data-centers/pittsburgh/summit-park-campus/summit-park/"
  }
},
{
  "type": "way",
  "id": 169170979,
  "center": {
    "lat": 34.9954515,
    "lon": -106.6180334
  },
  "tags": {
    "addr:city": "Albuquerque",
    "addr:housenumber": "5610",
    "addr:postcode": "87106",
    "addr:state": "NM",
    "addr:street": "Turing Road Southeast",
    "building": "yes",
    "building:levels": "1",
    "name": "Molina Healthcare",
    "operator": "Molina Healthcare",
    "ref": "MHDC",
    "telecom": "data_center",
    "year_of_construction": "2010"
  }
},
{
  "type": "way",
  "id": 172739950,
  "center": {
    "lat": 36.0617389,
    "lon": -115.2132922
  },
  "tags": {
    "building": "warehouse",
    "name": "Switch12",
    "operator": "Switch",
    "telecom": "data_center",
    "tiger:cfcc": "A41",
    "tiger:county": "Clark, NV",
    "tiger:name_base": "Post",
    "tiger:name_direction_prefix": "W",
    "tiger:name_type": "Rd"
  }
},
{
  "type": "way",
  "id": 172739953,
  "center": {
    "lat": 36.0599191,
    "lon": -115.2101970
  },
  "tags": {
    "addr:city": "Enterprise",
    "addr:country": "US",
    "addr:housenumber": "7135",
    "addr:postcode": "89118",
    "addr:state": "NV",
    "addr:street": "South Decatur Boulevard",
    "building": "yes",
    "name": "Switch Las Vegas 7",
    "operator": "Switch",
    "telecom": "data_center",
    "tiger:cfcc": "A41",
    "tiger:county": "Clark, NV",
    "tiger:name_base": "Post",
    "tiger:name_direction_prefix": "W",
    "tiger:name_type": "Rd"
  }
},
{
  "type": "way",
  "id": 174242795,
  "center": {
    "lat": 42.0007751,
    "lon": -87.9507686
  },
  "tags": {
    "addr:city": "Elk Grove Village",
    "addr:housenumber": "1800",
    "addr:postcode": "60007",
    "addr:state": "IL",
    "addr:street": "Nicholas Boulevard",
    "building": "data_center",
    "name": "EdgeConneX CHI01",
    "operator": "EdgeConneX",
    "operator:wikidata": "Q115477226",
    "ref": "CHI01",
    "telecom": "data_center"
  }
},
{
  "type": "way",
  "id": 178331621,
  "center": {
    "lat": 39.3777781,
    "lon": -77.4115448
  },
  "tags": {
    "building": "yes",
    "source": "Bing",
    "telecom": "data_center"
  }
},
{
  "type": "way",
  "id": 187574082,
  "center": {
    "lat": 40.4949031,
    "lon": -74.4430949
  },
  "tags": {
    "building": "yes",
    "name": "Verizon Wireline Network Building",
    "telecom": "data_center"
  }
},
{
  "type": "way",
  "id": 190868312,
  "center": {
    "lat": 38.6442393,
    "lon": -121.4987627
  },
  "tags": {
    "addr:city": "Sacramento",
    "addr:housenumber": "1625",
    "addr:postcode": "95834",
    "addr:state": "CA",
    "addr:street": "National Driveq",
    "building": "data_center",
    "name": "RagingWire CA3",
    "operator": "NTT",
    "operator:wikidata": "Q1054787",
    "ref": "CA3",
    "telecom": "data_center",
    "website": "https://services.global.ntt/en-us/services-and-products/global-data-centers/global-locations/americas/sacramento-data-centers"
  }
},
{
  "type": "way",
  "id": 191655977,
  "center": {
    "lat": 41.2214856,
    "lon": -95.8638220
  },
  "tags": {
    "building": "data_center",
    "telecom": "data_center"
  }
},
{
  "type": "way",
  "id": 192307107,
  "center": {
    "lat": 37.7889916,
    "lon": -122.3901367
  },
  "tags": {
    "addr:city": "San Francisco",
    "addr:housenumber": "360",
    "addr:state": "CA",
    "addr:street": "Spear Street",
    "building": "data_center",
    "height": "34 m",
    "name": "360 Spear Street Data Center",
    "operator": "Digital Realty",
    "operator:wikidata": "Q5275969",
    "telecom": "data_center"
  }
},
{
  "type": "way",
  "id": 193611192,
  "center": {
    "lat": 40.7785845,
    "lon": -74.0723242
  },
  "tags": {
    "addr:city": "Secaucus",
    "addr:housenumber": "800",
    "addr:postcode": "07094",
    "addr:state": "NJ",
    "addr:street": "Secaucus Road",
    "building": "yes",
    "name": "Equinix New York Secaucus NY5",
    "operator": "Equinix",
    "operator:wikidata": "Q851641",
    "phone": "+1-866-378-4649",
    "source": "Bing;local knowledge",
    "telecom": "data_center",
    "website": "https://www.equinix.com/locations/united-states-colocation/new-york-data-centers/ny5/"
  }
},
{
  "type": "way",
  "id": 193611211,
  "center": {
    "lat": 40.7764281,
    "lon": -74.0697759
  },
  "tags": {
    "addr:city": "Secaucus",
    "addr:housenumber": "755",
    "addr:postcode": "07094",
    "addr:state": "NJ",
    "addr:street": "Secaucus Road",
    "building": "yes",
    "name": "Equinix New York Secaucus NY4",
    "operator": "Equinix",
    "operator:wikidata": "Q851641",
    "ref": "NY4",
    "source": "Bing",
    "telecom": "data_center"
  }
},
{
  "type": "way",
  "id": 193611216,
  "center": {
    "lat": 40.7749028,
    "lon": -74.0689687
  },
  "tags": {
    "addr:city": "Secaucus",
    "addr:housenumber": "600",
    "addr:postcode": "07094",
    "addr:state": "NJ",
    "addr:street": "Jefferson Avenue",
    "building": "yes",
    "name": "Equinix NY3",
    "operator": "Equinix",
    "operator:wikidata": "Q851641",
    "ref": "Equinix NY3",
    "telecom": "data_center"
  }
},
{
  "type": "way",
  "id": 193611219,
  "center": {
    "lat": 40.7772907,
    "lon": -74.0759403
  },
  "tags": {
    "addr:city": "Secaucus",
    "addr:housenumber": "275",
    "addr:postcode": "07094",
    "addr:state": "NJ",
    "addr:street": "Hartz Way",
    "building": "data_center",
    "name": "Equinix New York Secaucus NY2",
    "operator": "Equinix",
    "operator:wikidata": "Q851641",
    "ref": "NY2",
    "source": "Bing",
    "telecom": "data_center"
  }
},
{
  "type": "way",
  "id": 193612533,
  "center": {
    "lat": 40.7861640,
    "lon": -74.0691645
  },
  "tags": {
    "addr:city": "Secaucus",
    "addr:housenumber": "15",
    "addr:postcode": "07094",
    "addr:state": "NJ",
    "addr:street": "Enterprise Avenue North",
    "building": "yes",
    "clli": "SCCSNJEM",
    "name": "Centersquare NYC3 Data Center",
    "operator": "Centersquare",
    "source": "Bing;local knowledge",
    "telecom": "data_center"
  }
},
{
  "type": "way",
  "id": 194049551,
  "center": {
    "lat": 38.6463763,
    "lon": -121.4862686
  },
  "tags": {
    "addr:city": "Sacramento",
    "addr:housenumber": "1100",
    "addr:postcode": "95834",
    "addr:state": "CA",
    "addr:street": "North Market Boulevard",
    "building": "yes",
    "name": "QTS Sacramento",
    "operator": "Quality Technology Services",
    "operator:short": "QTS",
    "operator:wikidata": "Q18392800",
    "telecom": "data_center",
    "website": "https://www.qtsdatacenters.com/data-centers/sacramento"
  }
},
{
  "type": "way",
  "id": 195165330,
  "center": {
    "lat": 39.2906383,
    "lon": -94.6759163
  },
  "tags": {
    "building": "yes",
    "telecom": "data_center"
  }
},
{
  "type": "way",
  "id": 195165354,
  "center": {
    "lat": 39.2955554,
    "lon": -94.6734862
  },
  "tags": {
    "building": "yes",
    "telecom": "data_center"
  }
},
{
  "type": "way",
  "id": 195165374,
  "center": {
    "lat": 39.2954814,
    "lon": -94.6780114
  },
  "tags": {
    "addr:city": "Kansas City",
    "addr:housenumber": "7901",
    "addr:postcode": "64153",
    "addr:state": "MO",
    "addr:street": "Northwest 112th Street",
    "building": "yes",
    "name": "Black Rock Financial Management",
    "telecom": "data_center"
  }
},
{
  "type": "way",
  "id": 195169261,
  "center": {
    "lat": 39.3024057,
    "lon": -94.6847918
  },
  "tags": {
    "building": "yes",
    "building:levels": "2",
    "telecom": "data_center"
  }
},
{
  "type": "way",
  "id": 195664350,
  "center": {
    "lat": 36.2625496,
    "lon": -95.9100413
  },
  "tags": {
    "addr:city": "Tulsa",
    "addr:country": "US",
    "addr:housenumber": "7400",
    "addr:postcode": "74073",
    "addr:state": "OK",
    "addr:street": "North Lakewood Avenue",
    "building": "industrial",
    "name": "Cherokee Data Center",
    "telecom": "data_center"
  }
},
{
  "type": "way",
  "id": 199252950,
  "center": {
    "lat": 41.7966077,
    "lon": -88.2438232
  },
  "tags": {
    "addr:city": "Aurora",
    "addr:housenumber": "2805",
    "addr:postcode": "60502",
    "addr:state": "IL",
    "addr:street": "Diehl Road",
    "building": "industrial",
    "building:levels": "2",
    "name": "CyrusOne Chicago Aurora CME",
    "operator": "CyrusOne",
    "operator:wikidata": "Q16953751",
    "telecom": "data_center"
  }
},
{
  "type": "way",
  "id": 200989527,
  "center": {
    "lat": 39.5883237,
    "lon": -104.8324181
  },
  "tags": {
    "addr:city": "Centennial",
    "addr:housenumber": "7059",
    "addr:postcode": "80112",
    "addr:state": "CO",
    "addr:street": "South Potomac Street",
    "building": "yes",
    "name": "Xfinity/Comcast Data Center",
    "telecom": "data_center"
  }
},
{
  "type": "way",
  "id": 203432103,
  "center": {
    "lat": 39.1744228,
    "lon": -86.5006878
  },
  "tags": {
    "addr:city": "Bloomington",
    "addr:housenumber": "2750",
    "addr:postcode": "47408",
    "addr:state": "IN",
    "addr:street": "East Discovery Parkway",
    "architect": "SmithGroup",
    "architect:wikidata": "Q7544941",
    "building": "university",
    "name": "IU Data Center",
    "operator": "Indiana University",
    "telecom": "data_center"
  }
},
{
  "type": "way",
  "id": 204316962,
  "center": {
    "lat": 40.5208169,
    "lon": -74.3472226
  },
  "tags": {
    "addr:city": "Edison",
    "addr:housenumber": "3003",
    "addr:postcode": "07054",
    "addr:state": "NJ",
    "addr:street": "Woodbridge Avenue",
    "building": "yes",
    "building:levels": "1",
    "name": "IO Datacenter",
    "source": "Bing",
    "telecom": "data_center"
  }
},
{
  "type": "way",
  "id": 204460681,
  "center": {
    "lat": 40.5492135,
    "lon": -74.4582096
  },
  "tags": {
    "building": "data_center",
    "name": "DataBank Piscataway EWR2",
    "source": "Bing",
    "telecom": "data_center"
  }
},
{
  "type": "way",
  "id": 204460799,
  "center": {
    "lat": 40.5468425,
    "lon": -74.4920459
  },
  "tags": {
    "building": "yes",
    "name": "Optimum",
    "source": "Bing",
    "telecom": "data_center"
  }
},
{
  "type": "way",
  "id": 204460812,
  "center": {
    "lat": 40.5449197,
    "lon": -74.4953594
  },
  "tags": {
    "building": "yes",
    "name": "Equinix",
    "operator": "Equinix",
    "operator:wikidata": "Q851641",
    "source": "Bing",
    "telecom": "data_center"
  }
},
{
  "type": "way",
  "id": 204460835,
  "center": {
    "lat": 40.5472443,
    "lon": -74.4597373
  },
  "tags": {
    "building": "yes",
    "name": "Barclays Datacenter",
    "operator": "Barclays",
    "source": "Bing;https://www.datacenterknowledge.com/investing/-330-million-for-lehman-s-two-nj-data-centers",
    "telecom": "data_center"
  }
},
{
  "type": "way",
  "id": 204460903,
  "center": {
    "lat": 40.5529283,
    "lon": -74.4592038
  },
  "tags": {
    "addr:city": "Piscataway Township",
    "addr:housenumber": "365",
    "addr:postcode": "08854",
    "addr:state": "NJ",
    "addr:street": "South Randolphville Road",
    "building": "data_center",
    "name": "Digital Realty New York EWR12",
    "operator": "Digital Realty",
    "operator:wikidata": "Q5275969",
    "ref": "EWR12",
    "source": "Bing",
    "telecom": "data_center",
    "website": "https://www.digitalrealty.com/data-centers/americas/new-york/ewr12"
  }
},
{
  "type": "way",
  "id": 204460950,
  "center": {
    "lat": 40.5537931,
    "lon": -74.4571024
  },
  "tags": {
    "addr:city": "Piscataway Township",
    "addr:housenumber": "3",
    "addr:postcode": "08854",
    "addr:state": "NJ",
    "addr:street": "Corporate Place",
    "building": "data_center",
    "name": "Digital Realty New York EWR11",
    "operator": "Digital Realty",
    "operator:wikidata": "Q5275969",
    "ref": "EWR11",
    "source": "Bing",
    "telecom": "data_center",
    "website": "https://www.digitalrealty.com/data-centers/americas/new-york/ewr11"
  }
},
{
  "type": "way",
  "id": 205724881,
  "center": {
    "lat": 47.4950309,
    "lon": -122.2905696
  },
  "tags": {
    "addr:city": "Tukwila",
    "addr:housenumber": "3311",
    "addr:postcode": "98168",
    "addr:state": "WA",
    "addr:street": "South 120th Place",
    "building": "data_center",
    "name": "Intergate Seattle East Building 2",
    "telecom": "data_center"
  }
},
{
  "type": "way",
  "id": 205724885,
  "center": {
    "lat": 47.4948597,
    "lon": -122.2881943
  },
  "tags": {
    "building": "data_center",
    "name": "Intergate Seattle East Building 1",
    "operator": "Sabey",
    "telecom": "data_center"
  }
},
{
  "type": "way",
  "id": 205823968,
  "center": {
    "lat": 37.3754952,
    "lon": -121.9884063
  },
  "tags": {
    "addr:city": "Santa Clara",
    "addr:housenumber": "2960",
    "addr:postcode": "95051",
    "addr:state": "CA",
    "addr:street": "Corvin Drive",
    "building": "data_center",
    "name": "Equinix SV15",
    "operator": "Equinix",
    "operator:wikidata": "Q851641",
    "ref": "SV15",
    "telecom": "data_center",
    "website": "https://www.equinix.com/data-centers/americas-colocation/united-states-colocation/silicon-valley-data-centers/sv15"
  }
},
{
  "type": "way",
  "id": 205823970,
  "center": {
    "lat": 37.3761243,
    "lon": -121.9886718
  },
  "tags": {
    "addr:city": "Santa Clara",
    "addr:housenumber": "2960",
    "addr:postcode": "95051",
    "addr:state": "CA",
    "addr:street": "Corvin Drive",
    "building": "data_center",
    "name": "Equinix SV16",
    "operator": "Equinix",
    "operator:wikidata": "Q851641",
    "ref": "SV16",
    "telecom": "data_center",
    "website": "https://www.equinix.com/data-centers/americas-colocation/united-states-colocation/silicon-valley-data-centers/sv16"
  }
},
{
  "type": "way",
  "id": 205823971,
  "center": {
    "lat": 37.3765309,
    "lon": -121.9885825
  },
  "tags": {
    "addr:city": "Santa Clara",
    "addr:housenumber": "2960",
    "addr:postcode": "95051",
    "addr:state": "CA",
    "addr:street": "Corvin Drive",
    "building": "data_center",
    "name": "Equinix SV17",
    "operator": "Equinix",
    "operator:wikidata": "Q851641",
    "ref": "SV17",
    "telecom": "data_center",
    "website": "https://www.equinix.com/data-centers/americas-colocation/united-states-colocation/silicon-valley-data-centers/sv17"
  }
},
{
  "type": "way",
  "id": 205823980,
  "center": {
    "lat": 37.3749843,
    "lon": -121.9884742
  },
  "tags": {
    "addr:city": "Santa Clara",
    "addr:housenumber": "2960",
    "addr:postcode": "95051",
    "addr:state": "CA",
    "addr:street": "Corvin Drive",
    "building": "data_center",
    "name": "Equinix SV14",
    "operator": "Equinix",
    "operator:wikidata": "Q851641",
    "ref": "SV14",
    "telecom": "data_center",
    "website": "https://www.equinix.com/data-centers/americas-colocation/united-states-colocation/silicon-valley-data-centers/sv14"
  }
},
{
  "type": "way",
  "id": 205846843,
  "center": {
    "lat": 37.3762614,
    "lon": -121.9706851
  },
  "tags": {
    "building": "commercial",
    "name": "CoreSite SV4",
    "operator": "CoreSite",
    "ref": "SV4",
    "roof:colour": "gray",
    "roof:shape": "flat",
    "telecom": "data_center"
  }
},